ToiletID,URL,Name,Address1,Town,State,Postcode,AddressNote,Male,Female,Unisex,DumpPoint,FacilityType,ToiletType,AccessLimited,PaymentRequired,KeyRequired,AccessNote,Parking,ParkingNote,AccessibleMale,AccessibleFemale,AccessibleUnisex,AccessibleNote,MLAK,ParkingAccessible,AccessibleParkingNote,Ambulant,LHTransfer,RHTransfer,AdultChange,IsOpen,OpeningHoursSchedule,OpeningHoursNote,BabyChange,Showers,DrinkingWater,SharpsDisposal,SanitaryDisposal,IconURL,IconAltText,Notes,Status,Latitude,Longitude
1,https://toiletmap.gov.au/toilet/1,Sandy Beach Reserve,West Road,Bassendean,Western Australia,6054,,TRUE,TRUE,FALSE,FALSE,Park or reserve,,FALSE,FALSE,FALSE,,FALSE,,TRUE,TRUE,FALSE,,FALSE,FALSE,,FALSE,FALSE,FALSE,FALSE,AllHours,,,FALSE,TRUE,FALSE,TRUE,FALSE,https://toiletmap.gov.au/images/icons/mfa.png,"Male and Female, or Unisex (Accessible)",,Verified,-31.921836,115.9502062
2,https://toiletmap.gov.au/toilet/2,Point Reserve,North Road,Bassendean,Western Australia,6054,,TRUE,TRUE,FALSE,FALSE,Park or reserve,,FALSE,FALSE,FALSE,,FALSE,,TRUE,TRUE,FALSE,,FALSE,FALSE,,FALSE,FALSE,FALSE,FALSE,DaylightHours,,,FALSE,FALSE,FALSE,FALSE,FALSE,https://toiletmap.gov.au/images/icons/mfa.png,"Male and Female, or Unisex (Accessible)",,Verified,-31.9044101,115.9609911
3,https://toiletmap.gov.au/toilet/3,Success Hill Reserve,Off Seventh Avenue,Bassendean,Western Australia,6054,,TRUE,TRUE,FALSE,FALSE,Park or reserve,,FALSE,FALSE,FALSE,,TRUE,,TRUE,TRUE,FALSE,,FALSE,TRUE,,FALSE,FALSE,FALSE,FALSE,DaylightHours,,,TRUE,TRUE,TRUE,TRUE,FALSE,https://toiletmap.gov.au/images/icons/mfa.png,"Male and Female, or Unisex (Accessible)",,Verified,-31.89628865,115.955781
4,https://toiletmap.gov.au/toilet/4,Jubilee Reserve,Robinson Road,Eden Hill,Western Australia,6054,,TRUE,TRUE,FALSE,FALSE,Park or reserve,Sewerage,FALSE,FALSE,FALSE,,FALSE,,FALSE,FALSE,FALSE,,FALSE,FALSE,,FALSE,FALSE,FALSE,FALSE,DaylightHours,,,FALSE,FALSE,FALSE,TRUE,FALSE,https://toiletmap.gov.au/images/icons/mf.png,"Male and Female, or Unisex",,Verified,-31.891474,115.9401637
5,https://toiletmap.gov.au/toilet/5,Ashfield Reserve,Guildford Road,Ashfield,Western Australia,6054,,TRUE,TRUE,FALSE,FALSE,Park or reserve,,FALSE,FALSE,FALSE,,TRUE,,FALSE,FALSE,FALSE,,FALSE,TRUE,,FALSE,FALSE,FALSE,FALSE,DaylightHours,,,FALSE,FALSE,FALSE,TRUE,FALSE,https://toiletmap.gov.au/images/icons/mf.png,"Male and Female, or Unisex",,Verified,-31.91343349,115.9364772
6,https://toiletmap.gov.au/toilet/6,Old Perth Road & James Street,Corner of Old Perth Road & James Street,Bassendean,Western Australia,6054,,TRUE,TRUE,FALSE,FALSE,,,FALSE,FALSE,FALSE,,FALSE,,TRUE,TRUE,FALSE,,FALSE,FALSE,,FALSE,FALSE,FALSE,FALSE,DaylightHours,,,FALSE,FALSE,FALSE,FALSE,FALSE,https://toiletmap.gov.au/images/icons/mfa.png,"Male and Female, or Unisex (Accessible)",,Verified,-31.90444241,115.9500197
7,https://toiletmap.gov.au/toilet/7,Mary Crescent Reserve,Mary Crescent,Eden Hill,Western Australia,6054,,TRUE,TRUE,FALSE,FALSE,Park or reserve,,FALSE,FALSE,FALSE,,TRUE,,FALSE,FALSE,FALSE,,FALSE,TRUE,,FALSE,FALSE,FALSE,FALSE,DaylightHours,,,TRUE,FALSE,FALSE,FALSE,FALSE,https://toiletmap.gov.au/images/icons/mf.png,"Male and Female, or Unisex",,Verified,-31.89036599,115.9480897
9,https://toiletmap.gov.au/toilet/9,Bassendean Oval 3,Old Perth Road,Bassendean,Western Australia,6054,,TRUE,TRUE,FALSE,FALSE,Sporting facility,,FALSE,FALSE,FALSE,,FALSE,,TRUE,TRUE,FALSE,,FALSE,FALSE,,FALSE,FALSE,FALSE,FALSE,Variable,,,FALSE,FALSE,FALSE,FALSE,FALSE,https://toiletmap.gov.au/images/icons/mfa.png,"Male and Female, or Unisex (Accessible)",,Verified,-31.90371581,115.9564902
15,https://toiletmap.gov.au/toilet/15,"Apex Park, Moranbah Access Road",Goonyella Road,Moranbah,Queensland,4744,,TRUE,TRUE,FALSE,FALSE,Park or reserve,Sewerage,FALSE,FALSE,FALSE,,TRUE,,FALSE,FALSE,FALSE,,FALSE,FALSE,,FALSE,FALSE,FALSE,FALSE,AllHours,,,FALSE,FALSE,FALSE,FALSE,FALSE,https://toiletmap.gov.au/images/icons/mf.png,"Male and Female, or Unisex",,Verified,-22.01444418,148.0452418
16,https://toiletmap.gov.au/toilet/16,"Lions Park, Belyando Avenue",12 Belyando Avenue,Moranbah,Queensland,4744,,TRUE,TRUE,FALSE,FALSE,Park or reserve,Sewerage,FALSE,FALSE,FALSE,,TRUE,"Parking is available on Belyando Avenue, then a short walk into the park to access the toilet",FALSE,FALSE,FALSE,,FALSE,FALSE,"Parking is available on Belyando Avenue, then a short walk into the park to access the toilet",FALSE,FALSE,FALSE,FALSE,AllHours,,,FALSE,FALSE,FALSE,FALSE,FALSE,https://toiletmap.gov.au/images/icons/mf.png,"Male and Female, or Unisex",,Verified,-21.9993408,148.0439733
17,https://toiletmap.gov.au/toilet/17,Parella Street,Parella Street,Moranbah,Queensland,4744,,FALSE,FALSE,FALSE,FALSE,Park or reserve,Sewerage,FALSE,FALSE,FALSE,,TRUE,,TRUE,TRUE,FALSE,,FALSE,FALSE,,FALSE,FALSE,FALSE,FALSE,AllHours,,,FALSE,TRUE,FALSE,FALSE,FALSE,https://toiletmap.gov.au/images/icons/mfa.png,"Male and Female, or Unisex (Accessible)",,Verified,-22.0001525,148.0486159
18,https://toiletmap.gov.au/toilet/18,Nolan Park,Yeates Street,Moranbah,Queensland,4744,,FALSE,FALSE,TRUE,FALSE,Park or reserve,Sewerage,FALSE,FALSE,FALSE,,TRUE,On street parking available,FALSE,FALSE,FALSE,,FALSE,FALSE,On street parking available,FALSE,FALSE,FALSE,FALSE,AllHours,,,FALSE,FALSE,FALSE,FALSE,FALSE,https://toiletmap.gov.au/images/icons/mf.png,"Male and Female, or Unisex",,Verified,-22.00330089,148.0661184
20,https://toiletmap.gov.au/toilet/20,Binda Park,Grosvenor Drive,Moranbah,Queensland,4744,"Toilet is located at the far end of the park, near Grosvenor Drive",FALSE,FALSE,FALSE,FALSE,Park or reserve,Sewerage,FALSE,FALSE,FALSE,,TRUE,"Parking is available at the other end of the park from Isaac Way, heading towards Goonyella Road",FALSE,FALSE,TRUE,,FALSE,FALSE,"Parking is available at the other end of the park from Isaac Way, heading towards Goonyella Road",FALSE,FALSE,FALSE,FALSE,AllHours,Mon-Fri 7am-3pm,,TRUE,FALSE,FALSE,FALSE,FALSE,https://toiletmap.gov.au/images/icons/mfa.png,"Male and Female, or Unisex (Accessible)",,Verified,-22.00475579,148.0368824
21,https://toiletmap.gov.au/toilet/21,"Samson Street, Spring Park",Samson Street,Clermont,Queensland,4721,,TRUE,TRUE,FALSE,FALSE,Park or reserve,Sewerage,FALSE,FALSE,FALSE,,FALSE,,FALSE,FALSE,FALSE,,FALSE,FALSE,,FALSE,FALSE,FALSE,FALSE,AllHours,,,FALSE,FALSE,FALSE,FALSE,FALSE,https://toiletmap.gov.au/images/icons/mf.png,"Male and Female, or Unisex",,Verified,-22.83395213,147.6281099
22,https://toiletmap.gov.au/toilet/22,"Copperfield Road, Lions Park",Copperfield Road,Clermont,Queensland,4721,,TRUE,TRUE,FALSE,FALSE,Park or reserve,Sewerage,FALSE,FALSE,FALSE,,FALSE,,FALSE,FALSE,FALSE,,FALSE,FALSE,,FALSE,FALSE,FALSE,FALSE,AllHours,,,FALSE,FALSE,FALSE,FALSE,FALSE,https://toiletmap.gov.au/images/icons/mf.png,"Male and Female, or Unisex",,Verified,-22.83004599,147.6280868
23,https://toiletmap.gov.au/toilet/23,Drummond Street,Drummond Street,Clermont,Queensland,4721,,TRUE,TRUE,FALSE,FALSE,,,FALSE,FALSE,FALSE,,FALSE,,FALSE,FALSE,FALSE,,FALSE,FALSE,,FALSE,FALSE,FALSE,FALSE,AllHours,,,FALSE,FALSE,FALSE,FALSE,FALSE,https://toiletmap.gov.au/images/icons/mf.png,"Male and Female, or Unisex",,Verified,-22.81719492,147.6423012
24,https://toiletmap.gov.au/toilet/24,"Lime Street, Centenary Park",Lime Street,Clermont,Queensland,4721,,TRUE,TRUE,FALSE,FALSE,Park or reserve,Sewerage,FALSE,FALSE,FALSE,,FALSE,,FALSE,FALSE,FALSE,,FALSE,FALSE,,FALSE,FALSE,FALSE,FALSE,AllHours,,,FALSE,FALSE,FALSE,FALSE,FALSE,https://toiletmap.gov.au/images/icons/mf.png,"Male and Female, or Unisex",,Verified,-22.8183737,147.6417002
25,https://toiletmap.gov.au/toilet/25,Capella Street,Capella Street,Clermont,Queensland,4721,,TRUE,TRUE,FALSE,FALSE,,,FALSE,FALSE,FALSE,,FALSE,,FALSE,FALSE,FALSE,,FALSE,FALSE,,FALSE,FALSE,FALSE,FALSE,AllHours,,,FALSE,FALSE,FALSE,FALSE,FALSE,https://toiletmap.gov.au/images/icons/mf.png,"Male and Female, or Unisex",,Verified,-22.82389777,147.6410069
26,https://toiletmap.gov.au/toilet/26,East Palmerston,Palmerston Highway,East Palmerston,Queensland,4860,,TRUE,TRUE,FALSE,FALSE,,,FALSE,FALSE,FALSE,,FALSE,,FALSE,FALSE,FALSE,,FALSE,FALSE,,FALSE,FALSE,FALSE,FALSE,AllHours,,,FALSE,FALSE,FALSE,FALSE,FALSE,https://toiletmap.gov.au/images/icons/mf.png,"Male and Female, or Unisex",,Verified,-17.60413393,145.8481593
27,https://toiletmap.gov.au/toilet/27,Sam Brischetto Park,Bon Villa Avenue,Hudson,Queensland,4860,,TRUE,TRUE,FALSE,FALSE,Park or reserve,,FALSE,FALSE,FALSE,,FALSE,,FALSE,FALSE,FALSE,,FALSE,FALSE,,FALSE,FALSE,FALSE,FALSE,AllHours,,,FALSE,FALSE,FALSE,FALSE,FALSE,https://toiletmap.gov.au/images/icons/mf.png,"Male and Female, or Unisex",,Verified,-17.52168719,145.9889661
28,https://toiletmap.gov.au/toilet/28,Fred Drew Park,Palmerston Drive,Hudson,Queensland,4860,,TRUE,TRUE,FALSE,FALSE,Park or reserve,,FALSE,FALSE,FALSE,,FALSE,,FALSE,FALSE,FALSE,,FALSE,FALSE,,FALSE,FALSE,FALSE,FALSE,AllHours,,,FALSE,FALSE,FALSE,FALSE,FALSE,https://toiletmap.gov.au/images/icons/mf.png,"Male and Female, or Unisex",,Verified,-17.51502477,145.9937873
29,https://toiletmap.gov.au/toilet/29,Anzac Park,Edith Street,Innisfail,Queensland,4860,,TRUE,TRUE,FALSE,FALSE,Park or reserve,,FALSE,FALSE,FALSE,,FALSE,,TRUE,TRUE,FALSE,,FALSE,FALSE,,FALSE,FALSE,FALSE,FALSE,AllHours,,,FALSE,FALSE,FALSE,FALSE,FALSE,https://toiletmap.gov.au/images/icons/mfa.png,"Male and Female, or Unisex (Accessible)",,Verified,-17.52406506,146.0278857
30,https://toiletmap.gov.au/toilet/30,Jack Fossey Park,Benwell Street,Innisfail,Queensland,4860,,TRUE,TRUE,FALSE,FALSE,Park or reserve,,FALSE,FALSE,FALSE,,FALSE,,FALSE,FALSE,FALSE,,FALSE,FALSE,,FALSE,FALSE,FALSE,FALSE,AllHours,,,FALSE,FALSE,FALSE,FALSE,FALSE,https://toiletmap.gov.au/images/icons/mf.png,"Male and Female, or Unisex",,Verified,-17.52355834,146.0325387
31,https://toiletmap.gov.au/toilet/31,Fitzgerald Park,Esplanade,Innisfail,Queensland,4860,,TRUE,TRUE,FALSE,FALSE,Park or reserve,,FALSE,FALSE,FALSE,,FALSE,,FALSE,FALSE,FALSE,,FALSE,FALSE,,FALSE,FALSE,FALSE,FALSE,AllHours,,,FALSE,FALSE,FALSE,FALSE,FALSE,https://toiletmap.gov.au/images/icons/mf.png,"Male and Female, or Unisex",,Verified,-17.51981571,146.0310243
33,https://toiletmap.gov.au/toilet/33,Warrina Lakes,Emily Street,Innisfail,Queensland,4860,,TRUE,TRUE,FALSE,FALSE,Park or reserve,,FALSE,FALSE,FALSE,,FALSE,,TRUE,TRUE,FALSE,,FALSE,FALSE,,FALSE,FALSE,FALSE,FALSE,Variable,10am-6pm,,FALSE,FALSE,FALSE,FALSE,FALSE,https://toiletmap.gov.au/images/icons/mfa.png,"Male and Female, or Unisex (Accessible)",,Verified,-17.51839405,146.0246337
34,https://toiletmap.gov.au/toilet/34,Callandar Park 2,Ernest Street,Innisfail,Queensland,4860,,TRUE,TRUE,FALSE,FALSE,Park or reserve,,FALSE,FALSE,FALSE,,FALSE,,FALSE,FALSE,FALSE,,FALSE,FALSE,,FALSE,FALSE,FALSE,FALSE,AllHours,,,FALSE,FALSE,FALSE,FALSE,FALSE,https://toiletmap.gov.au/images/icons/mf.png,"Male and Female, or Unisex",,Verified,-17.51664911,146.0269338
35,https://toiletmap.gov.au/toilet/35,Coconuts,Esplanade,Coconuts,Queensland,4860,,TRUE,TRUE,FALSE,FALSE,,,FALSE,FALSE,FALSE,,FALSE,,FALSE,FALSE,FALSE,,FALSE,FALSE,,FALSE,FALSE,FALSE,FALSE,AllHours,,,FALSE,FALSE,FALSE,FALSE,FALSE,https://toiletmap.gov.au/images/icons/mf.png,"Male and Female, or Unisex",,Verified,-17.50743895,146.0644049
36,https://toiletmap.gov.au/toilet/36,Flying Fish Point 2,"Esplanade, Scheu Park",Flying Fish Point,Queensland,4860,,TRUE,TRUE,FALSE,FALSE,,,FALSE,FALSE,FALSE,,FALSE,,FALSE,FALSE,FALSE,,FALSE,FALSE,,FALSE,FALSE,FALSE,FALSE,AllHours,,,FALSE,FALSE,FALSE,FALSE,FALSE,https://toiletmap.gov.au/images/icons/mf.png,"Male and Female, or Unisex",,Verified,-17.50206605,146.0762983
37,https://toiletmap.gov.au/toilet/37,Corso,The Corso,Innisfail,Queensland,4860,,TRUE,TRUE,FALSE,FALSE,,,FALSE,FALSE,FALSE,,FALSE,,FALSE,FALSE,FALSE,,FALSE,FALSE,,FALSE,FALSE,FALSE,FALSE,AllHours,,,FALSE,FALSE,FALSE,FALSE,FALSE,https://toiletmap.gov.au/images/icons/mf.png,"Male and Female, or Unisex",,Verified,-17.52523492,146.034905
38,https://toiletmap.gov.au/toilet/38,Wrights Park,Sherwood Street,East Innisfail,Queensland,4860,,TRUE,TRUE,FALSE,FALSE,Park or reserve,,FALSE,FALSE,FALSE,,FALSE,,FALSE,FALSE,FALSE,,FALSE,FALSE,,FALSE,FALSE,FALSE,FALSE,AllHours,,,FALSE,FALSE,FALSE,FALSE,FALSE,https://toiletmap.gov.au/images/icons/mf.png,"Male and Female, or Unisex",,Verified,-17.52870492,146.039882
39,https://toiletmap.gov.au/toilet/39,Castor Park,Castor Street,Mourilyan Harbour,Queensland,4858,,TRUE,TRUE,FALSE,FALSE,Park or reserve,,FALSE,FALSE,FALSE,,FALSE,,TRUE,TRUE,FALSE,,FALSE,FALSE,,FALSE,FALSE,FALSE,FALSE,AllHours,,,FALSE,FALSE,FALSE,FALSE,FALSE,https://toiletmap.gov.au/images/icons/mfa.png,"Male and Female, or Unisex (Accessible)",,Verified,-17.58434935,146.0404424
40,https://toiletmap.gov.au/toilet/40,Wangan Sports Ground,Cheshire Street,Wangan,Queensland,4871,,TRUE,TRUE,FALSE,FALSE,Sporting facility,,FALSE,FALSE,FALSE,,FALSE,,FALSE,FALSE,FALSE,,FALSE,FALSE,,FALSE,FALSE,FALSE,FALSE,Variable,8am-5pm,,FALSE,FALSE,FALSE,FALSE,FALSE,https://toiletmap.gov.au/images/icons/mf.png,"Male and Female, or Unisex",,Verified,-17.57451729,146.0085622
41,https://toiletmap.gov.au/toilet/41,South Johnstone,Enright Street,South Johnstone,Queensland,4859,,TRUE,TRUE,FALSE,FALSE,,,FALSE,FALSE,FALSE,,FALSE,,FALSE,FALSE,FALSE,,FALSE,FALSE,,FALSE,FALSE,FALSE,FALSE,AllHours,,,FALSE,FALSE,FALSE,FALSE,FALSE,https://toiletmap.gov.au/images/icons/mf.png,"Male and Female, or Unisex",,Verified,-17.59462436,145.9983923
42,https://toiletmap.gov.au/toilet/42,Mena Creek Road,Cane Cutter Way,Germantown,Queensland,4871,,TRUE,TRUE,FALSE,FALSE,,,FALSE,FALSE,FALSE,,FALSE,,FALSE,FALSE,FALSE,,FALSE,FALSE,,FALSE,FALSE,FALSE,FALSE,AllHours,,,FALSE,FALSE,FALSE,FALSE,FALSE,https://toiletmap.gov.au/images/icons/mf.png,"Male and Female, or Unisex",,Verified,-17.65462056,145.9567305
43,https://toiletmap.gov.au/toilet/43,Japoonvale,Innisfail Japoon Rd,Japoonvale,Queensland,4856,,TRUE,TRUE,FALSE,FALSE,,,FALSE,FALSE,FALSE,,FALSE,,FALSE,FALSE,FALSE,,FALSE,FALSE,,FALSE,FALSE,FALSE,FALSE,AllHours,,,FALSE,FALSE,FALSE,FALSE,FALSE,https://toiletmap.gov.au/images/icons/mf.png,"Male and Female, or Unisex",,Verified,-17.72507368,145.9314617
44,https://toiletmap.gov.au/toilet/44,Sharpe Park,Polich Road,Germantown,Queensland,4871,,TRUE,TRUE,FALSE,FALSE,Park or reserve,,FALSE,FALSE,FALSE,,FALSE,,FALSE,FALSE,FALSE,,FALSE,FALSE,,FALSE,FALSE,FALSE,FALSE,AllHours,,,FALSE,FALSE,FALSE,FALSE,FALSE,https://toiletmap.gov.au/images/icons/mf.png,"Male and Female, or Unisex",,Verified,-17.66090163,145.962462
45,https://toiletmap.gov.au/toilet/45,Centenary Park,Silkwood - Japoon Road,Silkwood,Queensland,4856,,TRUE,TRUE,FALSE,FALSE,Park or reserve,,FALSE,FALSE,FALSE,,FALSE,,FALSE,FALSE,FALSE,,FALSE,FALSE,,FALSE,FALSE,FALSE,FALSE,Variable,8am-5pm,,FALSE,FALSE,FALSE,FALSE,FALSE,https://toiletmap.gov.au/images/icons/mf.png,"Male and Female, or Unisex",,Verified,-17.74117696,146.0143938
47,https://toiletmap.gov.au/toilet/47,Kurrimine Beach,Robert Johnstone Parade,Kurrimine Beach,Queensland,4871,,TRUE,TRUE,FALSE,FALSE,,,FALSE,FALSE,FALSE,,FALSE,,FALSE,FALSE,FALSE,,FALSE,FALSE,,FALSE,FALSE,FALSE,FALSE,AllHours,,,FALSE,FALSE,FALSE,FALSE,FALSE,https://toiletmap.gov.au/images/icons/mf.png,"Male and Female, or Unisex",,Verified,-17.77664389,146.1081736
48,https://toiletmap.gov.au/toilet/48,Cowley Beach,Barakaoan Road,Lower Cowley,Queensland,4871,,TRUE,TRUE,FALSE,FALSE,,,FALSE,FALSE,FALSE,,FALSE,,FALSE,FALSE,FALSE,,FALSE,FALSE,,FALSE,FALSE,FALSE,FALSE,AllHours,,,FALSE,FALSE,FALSE,FALSE,FALSE,https://toiletmap.gov.au/images/icons/mf.png,"Male and Female, or Unisex",,Verified,-17.69528256,146.1117339
49,https://toiletmap.gov.au/toilet/49,Digger Creek,Bruce Highway,El Arish,Queensland,4855,,TRUE,TRUE,FALSE,FALSE,,,FALSE,FALSE,FALSE,,FALSE,,FALSE,FALSE,FALSE,,FALSE,FALSE,,FALSE,FALSE,FALSE,FALSE,AllHours,,,FALSE,FALSE,FALSE,FALSE,FALSE,https://toiletmap.gov.au/images/icons/mf.png,"Male and Female, or Unisex",,Verified,-17.79452671,146.0123507
50,https://toiletmap.gov.au/toilet/50,Returned Services League Club,Royston Street,El Arish,Queensland,4855,,TRUE,TRUE,FALSE,FALSE,,,FALSE,FALSE,FALSE,,FALSE,,FALSE,FALSE,FALSE,,FALSE,FALSE,,FALSE,FALSE,FALSE,FALSE,AllHours,,,FALSE,FALSE,FALSE,FALSE,FALSE,https://toiletmap.gov.au/images/icons/mf.png,"Male and Female, or Unisex",,Verified,-17.80691645,146.0044798
51,https://toiletmap.gov.au/toilet/51,Village Green,Central Avenue,Mission Beach,Queensland,4852,,TRUE,TRUE,FALSE,FALSE,,,FALSE,FALSE,FALSE,,FALSE,,TRUE,TRUE,FALSE,,FALSE,FALSE,,FALSE,FALSE,FALSE,FALSE,AllHours,,,FALSE,FALSE,FALSE,FALSE,FALSE,https://toiletmap.gov.au/images/icons/mfa.png,"Male and Female, or Unisex (Accessible)",,Verified,-17.8691984,146.106737
52,https://toiletmap.gov.au/toilet/52,Stinger Net,Seaview Street,Mission Beach,Queensland,4852,,TRUE,TRUE,FALSE,FALSE,,,FALSE,FALSE,FALSE,,FALSE,,TRUE,TRUE,FALSE,,FALSE,FALSE,,FALSE,FALSE,FALSE,FALSE,AllHours,,,FALSE,FALSE,FALSE,FALSE,FALSE,https://toiletmap.gov.au/images/icons/mfa.png,"Male and Female, or Unisex (Accessible)",,Verified,-17.871178,146.1066188
56,https://toiletmap.gov.au/toilet/56,Cutten Street,Cutten Street,Bingil Bay,Queensland,4852,,TRUE,TRUE,FALSE,FALSE,,,FALSE,FALSE,FALSE,,FALSE,,FALSE,FALSE,FALSE,,FALSE,FALSE,,FALSE,FALSE,FALSE,FALSE,AllHours,,,FALSE,FALSE,FALSE,FALSE,FALSE,https://toiletmap.gov.au/images/icons/mf.png,"Male and Female, or Unisex",,Verified,-17.83093616,146.099498
57,https://toiletmap.gov.au/toilet/57,Camp Area,Bingil Bay Road,Bingil Bay,Queensland,4852,,TRUE,TRUE,FALSE,FALSE,Camping ground,,FALSE,FALSE,FALSE,,FALSE,,FALSE,FALSE,FALSE,,FALSE,FALSE,,FALSE,FALSE,FALSE,FALSE,AllHours,,,FALSE,FALSE,FALSE,FALSE,FALSE,https://toiletmap.gov.au/images/icons/mf.png,"Male and Female, or Unisex",,Verified,-17.82990204,146.0997934
58,https://toiletmap.gov.au/toilet/58,Marc Park,Tully - Mission Beach Road,Mission Beach,Queensland,4852,,TRUE,TRUE,FALSE,FALSE,Park or reserve,,FALSE,FALSE,FALSE,,FALSE,,FALSE,FALSE,FALSE,,FALSE,FALSE,,FALSE,FALSE,FALSE,FALSE,AllHours,,,FALSE,FALSE,FALSE,FALSE,FALSE,https://toiletmap.gov.au/images/icons/mf.png,"Male and Female, or Unisex",,Verified,-17.87259629,146.0922595
60,https://toiletmap.gov.au/toilet/60,Mourilyan Harbour,,Mourilyan Harbour,Queensland,4858,,TRUE,TRUE,FALSE,FALSE,,,FALSE,FALSE,FALSE,,FALSE,,TRUE,TRUE,FALSE,,FALSE,FALSE,,FALSE,FALSE,FALSE,FALSE,AllHours,,,FALSE,FALSE,FALSE,FALSE,FALSE,https://toiletmap.gov.au/images/icons/mfa.png,"Male and Female, or Unisex (Accessible)",,Verified,-17.59892284,146.1255684
61,https://toiletmap.gov.au/toilet/61,Innisfail Cemetery,Clare Street,Innisfail,Queensland,4860,,TRUE,TRUE,FALSE,FALSE,,,FALSE,FALSE,FALSE,,FALSE,,TRUE,TRUE,FALSE,,FALSE,FALSE,,FALSE,FALSE,FALSE,FALSE,AllHours,,,FALSE,FALSE,FALSE,FALSE,FALSE,https://toiletmap.gov.au/images/icons/mfa.png,"Male and Female, or Unisex (Accessible)",,Verified,-17.52896276,146.0285004
67,https://toiletmap.gov.au/toilet/67,Pickering Brook,251 Pickering Brook Road,Pickering Brook,Western Australia,6076,Located in between Pickering Brook Primary School and Bartons Mill Chapel Historic Site at the rear of the school car park,TRUE,TRUE,FALSE,FALSE,Other,Septic,FALSE,FALSE,FALSE,,TRUE,,TRUE,TRUE,FALSE,,FALSE,TRUE,,FALSE,FALSE,FALSE,FALSE,AllHours,,,TRUE,FALSE,TRUE,FALSE,FALSE,https://toiletmap.gov.au/images/icons/mfa.png,"Male and Female, or Unisex (Accessible)",Also 1 x Electric BBQ and Picnic Table,Verified,-32.03457275,116.131706
68,https://toiletmap.gov.au/toilet/68,Kalamunda Bus Station,20-22 Meade Street,Kalamunda,Western Australia,6076,Nestled neatly behind the Jack Healey Seniors Centre in Meade Street - the Dome is on one side and the bus station on the other,TRUE,TRUE,FALSE,FALSE,Bus station,Septic,FALSE,FALSE,FALSE,,TRUE,,TRUE,TRUE,FALSE,,FALSE,TRUE,,FALSE,FALSE,FALSE,FALSE,AllHours,,,FALSE,FALSE,TRUE,FALSE,FALSE,https://toiletmap.gov.au/images/icons/mfa.png,"Male and Female, or Unisex (Accessible)",,Verified,-31.97401111,116.057448
69,https://toiletmap.gov.au/toilet/69,Fleming Reserve,39 Sorensen Road,High Wycombe,Western Australia,6057,,TRUE,TRUE,FALSE,FALSE,Park or reserve,Sewerage,TRUE,FALSE,FALSE,,TRUE,,TRUE,TRUE,FALSE,,FALSE,TRUE,,FALSE,FALSE,FALSE,FALSE,AllHours,,,TRUE,FALSE,TRUE,FALSE,FALSE,https://toiletmap.gov.au/images/icons/mfa.png,"Male and Female, or Unisex (Accessible)","Also...Electric BBQ's, Picnic Tables,Skate Park",Verified,-31.94465565,115.9960381
70,https://toiletmap.gov.au/toilet/70,Gooseberry Hill,42 Ledger Road,Gooseberry Hill,Western Australia,6076,Located next to Goosberry Hill Hall adjacent to Gooseberry Hill Reserve,TRUE,TRUE,FALSE,FALSE,Park or reserve,Septic,FALSE,FALSE,FALSE,Drive up the driveway to Gooseberry Hill Hall - toilets are on left hand side,TRUE,,TRUE,TRUE,FALSE,,FALSE,FALSE,,FALSE,FALSE,FALSE,FALSE,AllHours,,,FALSE,FALSE,TRUE,FALSE,FALSE,https://toiletmap.gov.au/images/icons/mfa.png,"Male and Female, or Unisex (Accessible)",,Verified,-31.95626632,116.057863
71,https://toiletmap.gov.au/toilet/71,Hedley Jorgensen Park,Crescent Road,Kalamunda,Western Australia,6076,,TRUE,TRUE,FALSE,FALSE,Park or reserve,Septic,FALSE,FALSE,FALSE,,TRUE,,TRUE,TRUE,FALSE,,FALSE,TRUE,,FALSE,FALSE,FALSE,FALSE,AllHours,,,FALSE,FALSE,TRUE,FALSE,FALSE,https://toiletmap.gov.au/images/icons/mfa.png,"Male and Female, or Unisex (Accessible)",Located in former golf course which has been turned into an off leash dog exercise area - great location with BBQ facilities nearby,Verified,-31.97215644,116.064895
72,https://toiletmap.gov.au/toilet/72,Kalamunda Library,8 Williams Street,Kalamunda,Western Australia,6076,The toilets are located on the northern end of the Kalamunda Library in between Williams Road and Railway Road adjacent to the historic Kalamunda History Village,TRUE,TRUE,FALSE,FALSE,Food outlet,Septic,TRUE,FALSE,FALSE,,TRUE,,TRUE,TRUE,FALSE,,FALSE,TRUE,,FALSE,FALSE,FALSE,FALSE,Variable,May-Sep 6am-6pm; Oct-Apr 6am-9pm,Facilities open during Library hours,TRUE,FALSE,TRUE,FALSE,FALSE,https://toiletmap.gov.au/images/icons/mfa.png,"Male and Female, or Unisex (Accessible)",,Verified,-31.97100721,116.0597669
74,https://toiletmap.gov.au/toilet/74,Lesmurdie Falls,Falls Road,Lesmurdie,Western Australia,6076,,TRUE,TRUE,FALSE,FALSE,Park or reserve,Septic,FALSE,FALSE,FALSE,,TRUE,,FALSE,FALSE,FALSE,,FALSE,FALSE,,FALSE,FALSE,FALSE,FALSE,AllHours,,,FALSE,FALSE,FALSE,FALSE,FALSE,https://toiletmap.gov.au/images/icons/mf.png,"Male and Female, or Unisex",,Verified,-31.99553312,116.0337223
76,https://toiletmap.gov.au/toilet/76,Maida Vale Reserve,40B Acacia Road,Maida Vale,Western Australia,6057,Located adjacent to the Maida Vale tennis Club and opposite the Kalamunda Soccer Club,TRUE,TRUE,FALSE,FALSE,Sporting facility,Septic,FALSE,FALSE,FALSE,,TRUE,,TRUE,TRUE,FALSE,,FALSE,FALSE,,FALSE,FALSE,FALSE,FALSE,AllHours,,,FALSE,FALSE,TRUE,FALSE,FALSE,https://toiletmap.gov.au/images/icons/mfa.png,"Male and Female, or Unisex (Accessible)",,Verified,-31.9488669,116.0262819
78,https://toiletmap.gov.au/toilet/78,Stirk Park,Cnr Kalamunda & Headingly Roads,Kalamunda,Western Australia,6076,Located in the middle of large grassy park area - access is easier from Elizabeth Street accross small pedestrian bridge and up the hill,TRUE,TRUE,FALSE,FALSE,Park or reserve,Septic,TRUE,FALSE,FALSE,,TRUE,,TRUE,TRUE,FALSE,,FALSE,TRUE,,FALSE,FALSE,FALSE,FALSE,DaylightHours,May-Sep 6am-6pm; Oct-Apr 6am-9pm,,FALSE,FALSE,TRUE,TRUE,FALSE,https://toiletmap.gov.au/images/icons/mfa.png,"Male and Female, or Unisex (Accessible)","Large family park with BBQ facilities, playgrounds, sound shell and a swing for wheel chairs",Verified,-31.96935747,116.0551335
79,https://toiletmap.gov.au/toilet/79,SKAMP Hall,22 Falls Road,Lesmurdie,Western Australia,6076,"Located behind the SKAMP Hall, in front of the Lesmurdie Scout Hall and beside the Lesmurdie Tennis Club",TRUE,TRUE,FALSE,FALSE,Sporting facility,Septic,FALSE,FALSE,FALSE,,TRUE,,TRUE,TRUE,FALSE,,FALSE,FALSE,,FALSE,FALSE,FALSE,FALSE,AllHours,,,FALSE,FALSE,TRUE,FALSE,FALSE,https://toiletmap.gov.au/images/icons/mfa.png,"Male and Female, or Unisex (Accessible)",,Verified,-31.99245712,116.0507532
80,https://toiletmap.gov.au/toilet/80,Town Hall Square,5 Barber Street,Kalamunda,Western Australia,6076,,TRUE,TRUE,FALSE,FALSE,Food outlet,Septic,TRUE,FALSE,FALSE,,TRUE,,TRUE,TRUE,FALSE,Wheelchair access only from Central Road Mall and through Town Square Park from Barber Street opposite the Post Office,FALSE,TRUE,,FALSE,FALSE,FALSE,FALSE,Variable,Oct-Apr 6am-9pm; May-Sep 6am-6pm,,FALSE,FALSE,TRUE,TRUE,FALSE,https://toiletmap.gov.au/images/icons/mfa.png,"Male and Female, or Unisex (Accessible)",,Verified,-31.97197326,116.0580103
82,https://toiletmap.gov.au/toilet/82,Zephyrs Cafe,Riverside Road,East Fremantle,Western Australia,6158,,TRUE,TRUE,FALSE,FALSE,,,FALSE,FALSE,FALSE,,FALSE,,FALSE,FALSE,FALSE,,FALSE,FALSE,,FALSE,FALSE,FALSE,FALSE,DaylightHours,,,FALSE,FALSE,FALSE,FALSE,FALSE,https://toiletmap.gov.au/images/icons/mf.png,"Male and Female, or Unisex",,Verified,-32.02925052,115.7628393
85,https://toiletmap.gov.au/toilet/85,Town Hall,135 Canning Highway,East Fremantle,Western Australia,6158,,TRUE,TRUE,FALSE,FALSE,,,FALSE,FALSE,FALSE,,FALSE,,FALSE,FALSE,FALSE,,FALSE,FALSE,,FALSE,FALSE,FALSE,FALSE,Variable,Mon-Fri 8:30am-5pm,,FALSE,FALSE,FALSE,FALSE,FALSE,https://toiletmap.gov.au/images/icons/mf.png,"Male and Female, or Unisex",,Verified,-32.04114943,115.7629389
86,https://toiletmap.gov.au/toilet/86,Town Beach,Friedman Way,Exmouth,Western Australia,6707,,TRUE,TRUE,FALSE,FALSE,Car park,Sewerage,FALSE,FALSE,FALSE,,TRUE,,FALSE,FALSE,FALSE,,FALSE,FALSE,,FALSE,FALSE,FALSE,FALSE,AllHours,,,FALSE,TRUE,FALSE,FALSE,FALSE,https://toiletmap.gov.au/images/icons/mf.png,"Male and Female, or Unisex",,Verified,-21.9453106,114.1397015
89,https://toiletmap.gov.au/toilet/89,Visitors Centre,Murat Road,Exmouth,Western Australia,6707,,TRUE,TRUE,FALSE,FALSE,Other,Sewerage,FALSE,FALSE,TRUE,,TRUE,,FALSE,FALSE,TRUE,,FALSE,FALSE,,FALSE,FALSE,FALSE,FALSE,DaylightHours,,Open during business hours,TRUE,TRUE,TRUE,FALSE,FALSE,https://toiletmap.gov.au/images/icons/mfa.png,"Male and Female, or Unisex (Accessible)",,Verified,-22.0190865,114.1117995
91,https://toiletmap.gov.au/toilet/91,Dunes Beach,Mildura Wreck Road,North West Cape,Western Australia,6707,Located at the Dunes Surf Beach which runs off the Mildura Wreck Road,FALSE,FALSE,TRUE,FALSE,,,FALSE,FALSE,FALSE,,TRUE,,TRUE,TRUE,FALSE,,FALSE,FALSE,,FALSE,FALSE,FALSE,FALSE,AllHours,,,FALSE,FALSE,FALSE,FALSE,FALSE,https://toiletmap.gov.au/images/icons/mfa.png,"Male and Female, or Unisex (Accessible)",,Verified,-21.8048725,114.1095345
92,https://toiletmap.gov.au/toilet/92,Tantabiddi Boat Ramp,Yardie Creek Road,North West Cape,Western Australia,6707,,FALSE,FALSE,TRUE,FALSE,Car park,Drop toilet,FALSE,FALSE,FALSE,,TRUE,,FALSE,FALSE,TRUE,,FALSE,FALSE,,FALSE,FALSE,FALSE,FALSE,AllHours,,,FALSE,FALSE,FALSE,FALSE,FALSE,https://toiletmap.gov.au/images/icons/mfa.png,"Male and Female, or Unisex (Accessible)",,Verified,-21.91922,113.9788262
93,https://toiletmap.gov.au/toilet/93,Frew Street,55 Frew Street,Thargomindah,Queensland,4492,Located at the truck parking area on the corner of Frew Street and the Bulloo Developmental Road,TRUE,TRUE,FALSE,FALSE,Other,Sewerage,FALSE,FALSE,FALSE,,TRUE,,FALSE,FALSE,FALSE,,FALSE,FALSE,,FALSE,FALSE,FALSE,FALSE,AllHours,,,FALSE,TRUE,TRUE,FALSE,FALSE,https://toiletmap.gov.au/images/icons/mf.png,"Male and Female, or Unisex",,Verified,-27.99456434,143.8213787
94,https://toiletmap.gov.au/toilet/94,Fergies Roadhouse,33 Stafford Street,Thargomindah,Queensland,4492,,TRUE,TRUE,FALSE,FALSE,Service station,Sewerage,FALSE,FALSE,FALSE,,FALSE,,FALSE,FALSE,TRUE,,FALSE,FALSE,,FALSE,FALSE,FALSE,FALSE,AllHours,,,FALSE,FALSE,FALSE,FALSE,FALSE,https://toiletmap.gov.au/images/icons/mfa.png,"Male and Female, or Unisex (Accessible)",,Verified,-27.99442957,143.8228463
95,https://toiletmap.gov.au/toilet/95,Napunyah Caravan Park,45 Powell Street,Thargomindah,Queensland,4492,,TRUE,TRUE,FALSE,FALSE,Caravan park,Sewerage,FALSE,FALSE,FALSE,,FALSE,,FALSE,FALSE,FALSE,,FALSE,FALSE,,FALSE,FALSE,FALSE,FALSE,AllHours,,,FALSE,FALSE,FALSE,FALSE,FALSE,https://toiletmap.gov.au/images/icons/mf.png,"Male and Female, or Unisex",,Verified,-27.99712237,143.8252558
97,https://toiletmap.gov.au/toilet/97,Torrence Parade,Torrence Parade,Hungerford,Queensland,4493,,TRUE,TRUE,FALSE,FALSE,,,FALSE,FALSE,FALSE,,FALSE,,TRUE,TRUE,FALSE,,FALSE,FALSE,,FALSE,FALSE,FALSE,FALSE,AllHours,,,FALSE,FALSE,FALSE,FALSE,FALSE,https://toiletmap.gov.au/images/icons/mfa.png,"Male and Female, or Unisex (Accessible)",,Verified,-28.99611036,144.4067888
99,https://toiletmap.gov.au/toilet/99,William Simmons Memorial Park,Gore Highway,Millmerran,Queensland,4357,,TRUE,TRUE,FALSE,FALSE,Park or reserve,,FALSE,FALSE,FALSE,,FALSE,,FALSE,FALSE,FALSE,,FALSE,FALSE,,FALSE,FALSE,FALSE,FALSE,AllHours,,,FALSE,FALSE,FALSE,FALSE,FALSE,https://toiletmap.gov.au/images/icons/mf.png,"Male and Female, or Unisex",,Verified,-27.87681745,151.2580584
100,https://toiletmap.gov.au/toilet/100,Bicentennial Park,Factory Lane,Millmerran,Queensland,4357,,TRUE,TRUE,FALSE,FALSE,Park or reserve,,FALSE,FALSE,FALSE,,FALSE,,FALSE,FALSE,FALSE,,FALSE,FALSE,,FALSE,FALSE,FALSE,FALSE,Variable,,Facilities are only open for special events,FALSE,FALSE,FALSE,FALSE,FALSE,https://toiletmap.gov.au/images/icons/mf.png,"Male and Female, or Unisex",,Verified,-27.87448115,151.2677834
101,https://toiletmap.gov.au/toilet/101,Anzac Memorial Park,Charlotte Street,Millmerran,Queensland,4357,,TRUE,TRUE,FALSE,FALSE,Park or reserve,,FALSE,FALSE,FALSE,,FALSE,,TRUE,TRUE,FALSE,,FALSE,FALSE,,FALSE,FALSE,FALSE,FALSE,AllHours,,,FALSE,FALSE,FALSE,FALSE,FALSE,https://toiletmap.gov.au/images/icons/mfa.png,"Male and Female, or Unisex (Accessible)",,Verified,-27.87502444,151.270011
102,https://toiletmap.gov.au/toilet/102,Lions Park,Edward Street,Millmerran,Queensland,4357,,TRUE,TRUE,FALSE,FALSE,Park or reserve,,FALSE,FALSE,FALSE,,FALSE,,FALSE,FALSE,FALSE,,FALSE,FALSE,,FALSE,FALSE,FALSE,FALSE,AllHours,,,FALSE,FALSE,FALSE,FALSE,FALSE,https://toiletmap.gov.au/images/icons/mf.png,"Male and Female, or Unisex",,Verified,-27.87469842,151.2743574
104,https://toiletmap.gov.au/toilet/104,Yarramalong Weir,Yarramalong Road,Tummaville,Queensland,4352,,TRUE,TRUE,FALSE,FALSE,,,FALSE,FALSE,FALSE,,FALSE,,FALSE,FALSE,FALSE,,FALSE,FALSE,,FALSE,FALSE,FALSE,FALSE,AllHours,,,FALSE,FALSE,FALSE,FALSE,FALSE,https://toiletmap.gov.au/images/icons/mf.png,"Male and Female, or Unisex",,Verified,-27.84291851,151.504309
106,https://toiletmap.gov.au/toilet/106,Apex Park,Toowoomba - Cecil Plains Road,Cecil Plains,Queensland,4407,,TRUE,TRUE,FALSE,FALSE,Park or reserve,,FALSE,FALSE,FALSE,,FALSE,,TRUE,TRUE,FALSE,,FALSE,FALSE,,FALSE,FALSE,FALSE,FALSE,AllHours,,,FALSE,FALSE,FALSE,FALSE,FALSE,https://toiletmap.gov.au/images/icons/mfa.png,"Male and Female, or Unisex (Accessible)",,Verified,-27.53269062,151.2045262
107,https://toiletmap.gov.au/toilet/107,Short Street,Short Street,Beaudesert,Queensland,4285,,TRUE,TRUE,FALSE,FALSE,Other,Sewerage,FALSE,FALSE,FALSE,,TRUE,,FALSE,FALSE,TRUE,,FALSE,TRUE,,FALSE,FALSE,FALSE,FALSE,AllHours,,,FALSE,FALSE,FALSE,FALSE,FALSE,https://toiletmap.gov.au/images/icons/mfa.png,"Male and Female, or Unisex (Accessible)",,Verified,-27.98728166,152.995396
108,https://toiletmap.gov.au/toilet/108,Jubilee Park,Telemon Street,Beaudesert,Queensland,4285,,TRUE,TRUE,FALSE,FALSE,Park or reserve,,FALSE,FALSE,FALSE,,FALSE,,TRUE,TRUE,FALSE,,FALSE,FALSE,,FALSE,FALSE,FALSE,FALSE,DaylightHours,,,FALSE,FALSE,FALSE,FALSE,FALSE,https://toiletmap.gov.au/images/icons/mfa.png,"Male and Female, or Unisex (Accessible)",,Verified,-27.9895395,152.9947928
109,https://toiletmap.gov.au/toilet/109,Selwyn Park,Hopkins Street,Beaudesert,Queensland,4285,,TRUE,TRUE,FALSE,FALSE,Park or reserve,Sewerage,FALSE,FALSE,FALSE,,TRUE,,TRUE,TRUE,FALSE,,FALSE,TRUE,,FALSE,FALSE,FALSE,FALSE,AllHours,,,FALSE,FALSE,FALSE,FALSE,FALSE,https://toiletmap.gov.au/images/icons/mfa.png,"Male and Female, or Unisex (Accessible)",,Verified,-27.98912589,152.9900359
110,https://toiletmap.gov.au/toilet/110,Darlington Park,Kerry Road,Darlington,Queensland,4285,,TRUE,TRUE,FALSE,TRUE,Camping ground,Septic,FALSE,FALSE,FALSE,,TRUE,,TRUE,TRUE,FALSE,,FALSE,TRUE,,FALSE,FALSE,FALSE,FALSE,DaylightHours,,,FALSE,FALSE,FALSE,FALSE,FALSE,https://toiletmap.gov.au/images/icons/mfa.png,"Male and Female, or Unisex (Accessible)",,Verified,-28.18623186,153.0413241
111,https://toiletmap.gov.au/toilet/111,Burgess Park,Christmas Creek Road,Southern Lamington,Queensland,4211,,TRUE,TRUE,FALSE,FALSE,Camping ground,Septic,FALSE,FALSE,FALSE,,TRUE,,FALSE,FALSE,FALSE,,FALSE,FALSE,,FALSE,FALSE,FALSE,FALSE,AllHours,,,FALSE,FALSE,FALSE,FALSE,FALSE,https://toiletmap.gov.au/images/icons/mf.png,"Male and Female, or Unisex",,Verified,-28.23893635,152.99585
112,https://toiletmap.gov.au/toilet/112,Stinson Park,Christmas Creek Road,Southern Lamington,Queensland,4211,,TRUE,TRUE,FALSE,FALSE,Camping ground,Septic,FALSE,FALSE,FALSE,,TRUE,,TRUE,TRUE,FALSE,,FALSE,TRUE,,FALSE,FALSE,FALSE,FALSE,AllHours,,,FALSE,FALSE,FALSE,FALSE,FALSE,https://toiletmap.gov.au/images/icons/mfa.png,"Male and Female, or Unisex (Accessible)",,Verified,-28.28729982,153.0360018
114,https://toiletmap.gov.au/toilet/114,Tilley Park,Mount Lindesay Highway,Rathdowney,Queensland,4287,,TRUE,TRUE,FALSE,FALSE,Park or reserve,Septic,FALSE,FALSE,FALSE,,TRUE,,TRUE,TRUE,FALSE,,FALSE,TRUE,,FALSE,FALSE,FALSE,FALSE,AllHours,,,FALSE,FALSE,FALSE,FALSE,FALSE,https://toiletmap.gov.au/images/icons/mfa.png,"Male and Female, or Unisex (Accessible)",,Verified,-28.22161473,152.8589774
115,https://toiletmap.gov.au/toilet/115,Collins Park,Collins Street,Rathdowney,Queensland,4287,,TRUE,TRUE,FALSE,FALSE,Park or reserve,Septic,FALSE,FALSE,FALSE,,TRUE,,TRUE,TRUE,FALSE,,FALSE,TRUE,,FALSE,FALSE,FALSE,FALSE,AllHours,,,FALSE,FALSE,FALSE,FALSE,FALSE,https://toiletmap.gov.au/images/icons/mfa.png,"Male and Female, or Unisex (Accessible)",,Verified,-28.21135412,152.8639323
116,https://toiletmap.gov.au/toilet/116,Greenbank Meadows Park,Campbell Road,Greenbank,Queensland,4124,,TRUE,TRUE,FALSE,FALSE,Park or reserve,Septic,FALSE,FALSE,FALSE,,FALSE,,TRUE,TRUE,FALSE,,FALSE,FALSE,,FALSE,FALSE,FALSE,FALSE,AllHours,,,FALSE,FALSE,FALSE,FALSE,FALSE,https://toiletmap.gov.au/images/icons/mfa.png,"Male and Female, or Unisex (Accessible)",,Verified,-27.72763687,153.0031428
117,https://toiletmap.gov.au/toilet/117,Pioneer Park ,Mount Lindesay Highway,Woodhill,Queensland,4285,,TRUE,TRUE,FALSE,FALSE,Park or reserve,Septic,FALSE,FALSE,FALSE,,FALSE,,FALSE,FALSE,FALSE,,FALSE,FALSE,,FALSE,FALSE,FALSE,FALSE,AllHours,,,FALSE,FALSE,FALSE,FALSE,FALSE,https://toiletmap.gov.au/images/icons/mf.png,"Male and Female, or Unisex",,Verified,-27.90050994,152.973296
118,https://toiletmap.gov.au/toilet/118,Paynes Bridge Park,Cusack Lane,Jimboomba,Queensland,4280,,TRUE,TRUE,FALSE,FALSE,Park or reserve,Septic,FALSE,FALSE,FALSE,,TRUE,,FALSE,FALSE,FALSE,,FALSE,FALSE,,FALSE,FALSE,FALSE,FALSE,AllHours,,,FALSE,FALSE,FALSE,FALSE,FALSE,https://toiletmap.gov.au/images/icons/mf.png,"Male and Female, or Unisex",,Verified,-27.81913385,153.0017816
119,https://toiletmap.gov.au/toilet/119,North Tamborine Park,Geissmann Street,Tamborine Mountain,Queensland,4272,,TRUE,TRUE,FALSE,FALSE,Park or reserve,Septic,FALSE,FALSE,FALSE,,TRUE,,FALSE,FALSE,FALSE,,FALSE,FALSE,,FALSE,FALSE,FALSE,FALSE,AllHours,,,FALSE,FALSE,FALSE,FALSE,FALSE,https://toiletmap.gov.au/images/icons/mf.png,"Male and Female, or Unisex",,Verified,-27.92298362,153.1836499
120,https://toiletmap.gov.au/toilet/120,Tully Park,Mount Lindesay Highway,North Maclean,Queensland,4280,,TRUE,TRUE,FALSE,FALSE,Park or reserve,Septic,FALSE,FALSE,FALSE,,TRUE,,TRUE,TRUE,FALSE,,FALSE,FALSE,,FALSE,FALSE,FALSE,FALSE,Variable,Sep-Feb 7am-6:30pm; Mar-Aug 7am-5:30pm,,FALSE,FALSE,FALSE,FALSE,FALSE,https://toiletmap.gov.au/images/icons/mfa.png,"Male and Female, or Unisex (Accessible)",,Verified,-27.78372921,153.0108736
122,https://toiletmap.gov.au/toilet/122,Newstead Park,Rona Street,Logan Reserve,Queensland,4133,,TRUE,TRUE,FALSE,FALSE,Park or reserve,Septic,FALSE,FALSE,FALSE,,TRUE,,FALSE,FALSE,FALSE,These toilets are for use by sporting bodies and public usage on sports days,FALSE,FALSE,,FALSE,FALSE,FALSE,FALSE,Variable,,,FALSE,FALSE,FALSE,FALSE,FALSE,https://toiletmap.gov.au/images/icons/mf.png,"Male and Female, or Unisex",,Verified,-27.72817949,153.116847
123,https://toiletmap.gov.au/toilet/123,Doughty Park,Geissmann Drive,Tamborine Mountain,Queensland,4272,,TRUE,TRUE,FALSE,FALSE,Park or reserve,Septic,FALSE,FALSE,FALSE,,TRUE,,FALSE,FALSE,TRUE,,FALSE,TRUE,,FALSE,FALSE,FALSE,FALSE,AllHours,,,TRUE,FALSE,FALSE,FALSE,FALSE,https://toiletmap.gov.au/images/icons/mfa.png,"Male and Female, or Unisex (Accessible)",,Verified,-27.92814951,153.1851172
124,https://toiletmap.gov.au/toilet/124,Staffsmith Park,Southport Avenue,Tamborine Mountain,Queensland,4272,,TRUE,TRUE,FALSE,FALSE,Park or reserve,Septic,FALSE,FALSE,FALSE,,TRUE,,TRUE,TRUE,FALSE,,FALSE,TRUE,,FALSE,FALSE,FALSE,FALSE,AllHours,,,FALSE,FALSE,FALSE,FALSE,FALSE,https://toiletmap.gov.au/images/icons/mfa.png,"Male and Female, or Unisex (Accessible)",,Verified,-27.92211697,153.2086813
125,https://toiletmap.gov.au/toilet/125,Rosser Park ,Prospect Street,Tamborine Mountain,Queensland,4272,,TRUE,TRUE,FALSE,FALSE,Park or reserve,Septic,FALSE,FALSE,FALSE,,TRUE,,TRUE,TRUE,FALSE,,FALSE,TRUE,,FALSE,FALSE,FALSE,FALSE,AllHours,,,FALSE,FALSE,FALSE,FALSE,FALSE,https://toiletmap.gov.au/images/icons/mfa.png,"Male and Female, or Unisex (Accessible)",,Verified,-27.97299655,153.1968815
126,https://toiletmap.gov.au/toilet/126,Tamborine Memorial Grounds,Waterford-Tamborine Road,Tamborine,Queensland,4270,,TRUE,TRUE,FALSE,FALSE,Park or reserve,Septic,FALSE,FALSE,FALSE,,TRUE,,TRUE,TRUE,FALSE,,FALSE,FALSE,,FALSE,FALSE,FALSE,FALSE,AllHours,,,FALSE,FALSE,FALSE,FALSE,FALSE,https://toiletmap.gov.au/images/icons/mfa.png,"Male and Female, or Unisex (Accessible)",,Verified,-27.8772353,153.1250571
127,https://toiletmap.gov.au/toilet/127,Smith Park,Kidston Street,Canungra,Queensland,4275,,TRUE,TRUE,FALSE,FALSE,Park or reserve,Sewerage,FALSE,FALSE,FALSE,,TRUE,,TRUE,TRUE,FALSE,,FALSE,TRUE,,FALSE,FALSE,FALSE,FALSE,AllHours,,,FALSE,FALSE,FALSE,FALSE,FALSE,https://toiletmap.gov.au/images/icons/mfa.png,"Male and Female, or Unisex (Accessible)",,Verified,-28.01761469,153.1643722
128,https://toiletmap.gov.au/toilet/128,Sharp Park,Beechmont Road,Witheren,Queensland,4275,,TRUE,TRUE,FALSE,FALSE,Camping ground,Septic,FALSE,FALSE,FALSE,,TRUE,,TRUE,TRUE,FALSE,,FALSE,TRUE,,FALSE,FALSE,FALSE,FALSE,AllHours,,,FALSE,FALSE,FALSE,FALSE,FALSE,https://toiletmap.gov.au/images/icons/mfa.png,"Male and Female, or Unisex (Accessible)",,Verified,-28.04900123,153.1890703
129,https://toiletmap.gov.au/toilet/129,Graceleigh Park,Beechmont Road,Beechmont,Queensland,4211,,TRUE,TRUE,FALSE,FALSE,Park or reserve,Septic,FALSE,FALSE,FALSE,,TRUE,,TRUE,TRUE,FALSE,,FALSE,FALSE,,FALSE,FALSE,FALSE,FALSE,AllHours,,,FALSE,FALSE,FALSE,FALSE,FALSE,https://toiletmap.gov.au/images/icons/mfa.png,"Male and Female, or Unisex (Accessible)",,Verified,-28.12535695,153.1869555
130,https://toiletmap.gov.au/toilet/130,Rosins Lookout,Beechmont Road,Beechmont,Queensland,4211,,TRUE,TRUE,FALSE,FALSE,Park or reserve,Septic,FALSE,FALSE,FALSE,,TRUE,,TRUE,TRUE,FALSE,,FALSE,FALSE,,FALSE,FALSE,FALSE,FALSE,AllHours,,,FALSE,FALSE,FALSE,FALSE,FALSE,https://toiletmap.gov.au/images/icons/mfa.png,"Male and Female, or Unisex (Accessible)",,Verified,-28.10946075,153.2135541
131,https://toiletmap.gov.au/toilet/131,Bigriggan Camping Reserve,Bigriggan Road,Rathdowney,Queensland,4287,,TRUE,TRUE,FALSE,FALSE,Camping ground,Septic,FALSE,FALSE,FALSE,,FALSE,,FALSE,FALSE,FALSE,,FALSE,FALSE,,FALSE,FALSE,FALSE,FALSE,DaylightHours,,,FALSE,FALSE,FALSE,FALSE,FALSE,https://toiletmap.gov.au/images/icons/mf.png,"Male and Female, or Unisex",,Verified,-28.1985516,152.7777735
132,https://toiletmap.gov.au/toilet/132,Yellow Pinch Camping Reserve,Upper Logan Road,Mount Barney,Queensland,4287,,TRUE,TRUE,FALSE,FALSE,Park or reserve,Compost,FALSE,FALSE,FALSE,,FALSE,,TRUE,TRUE,FALSE,,FALSE,FALSE,,FALSE,FALSE,FALSE,FALSE,DaylightHours,,,FALSE,FALSE,FALSE,FALSE,FALSE,https://toiletmap.gov.au/images/icons/mfa.png,"Male and Female, or Unisex (Accessible)",,Verified,-28.25458044,152.7475182
133,https://toiletmap.gov.au/toilet/133,Logan Village Community Centre,River Street,Logan Village,Queensland,4207,,TRUE,TRUE,FALSE,FALSE,Park or reserve,Sewerage,FALSE,FALSE,FALSE,,TRUE,,TRUE,TRUE,FALSE,,FALSE,TRUE,,FALSE,FALSE,FALSE,FALSE,AllHours,,,FALSE,FALSE,FALSE,FALSE,FALSE,https://toiletmap.gov.au/images/icons/mfa.png,"Male and Female, or Unisex (Accessible)",,Verified,-27.76768672,153.1051244
134,https://toiletmap.gov.au/toilet/134,Flanagan Camping Reserve,Flanagan Reserve Road,Barney View,Queensland,4287,,TRUE,TRUE,FALSE,FALSE,Park or reserve,Septic,FALSE,FALSE,FALSE,,TRUE,,FALSE,FALSE,TRUE,,FALSE,TRUE,,FALSE,FALSE,FALSE,FALSE,DaylightHours,,,FALSE,TRUE,FALSE,FALSE,FALSE,https://toiletmap.gov.au/images/icons/mfa.png,"Male and Female, or Unisex (Accessible)",,Verified,-28.21337191,152.7652437
135,https://toiletmap.gov.au/toilet/135,North Tamborine,Knoll Road,Tamborine Mountain,Queensland,4272,,TRUE,TRUE,FALSE,FALSE,Sporting facility,Septic,FALSE,FALSE,FALSE,,FALSE,,FALSE,FALSE,FALSE,,FALSE,FALSE,,FALSE,FALSE,FALSE,FALSE,Variable,,Facilities are only open for sports training,FALSE,FALSE,FALSE,FALSE,FALSE,https://toiletmap.gov.au/images/icons/mf.png,"Male and Female, or Unisex",,Verified,-27.92254701,153.185196
136,https://toiletmap.gov.au/toilet/136,Mavor Park,Helen Street,Beaudesert,Queensland,4285,,TRUE,TRUE,FALSE,FALSE,Sporting facility,Sewerage,FALSE,FALSE,FALSE,,FALSE,,FALSE,FALSE,FALSE,,FALSE,FALSE,,FALSE,FALSE,FALSE,FALSE,Variable,,Facilities are only open for sports training,FALSE,FALSE,FALSE,FALSE,FALSE,https://toiletmap.gov.au/images/icons/mf.png,"Male and Female, or Unisex",,Verified,-27.97381667,152.9916847
137,https://toiletmap.gov.au/toilet/137,Kooralbyn,Wellington Bundock Drive,Kooralbyn,Queensland,4285,,TRUE,TRUE,FALSE,FALSE,Park or reserve,Septic,FALSE,FALSE,FALSE,,TRUE,,TRUE,TRUE,FALSE,,FALSE,FALSE,,FALSE,FALSE,FALSE,FALSE,DaylightHours,,,FALSE,FALSE,FALSE,FALSE,FALSE,https://toiletmap.gov.au/images/icons/mfa.png,"Male and Female, or Unisex (Accessible)",,Verified,-28.08623723,152.8440441
138,https://toiletmap.gov.au/toilet/138,Greenbank Community Centre,145-167 Teviot Road,Greenbank,Queensland,4124,,TRUE,TRUE,FALSE,FALSE,Park or reserve,Septic,FALSE,FALSE,FALSE,,TRUE,,TRUE,TRUE,FALSE,,FALSE,TRUE,,FALSE,FALSE,FALSE,FALSE,AllHours,,,FALSE,TRUE,FALSE,FALSE,FALSE,https://toiletmap.gov.au/images/icons/mfa.png,"Male and Female, or Unisex (Accessible)",,Verified,-27.72927597,152.9831434
139,https://toiletmap.gov.au/toilet/139,Middle Park,Beaudesert-Beenleigh Road,Tamborine,Queensland,4270,,TRUE,TRUE,FALSE,FALSE,Park or reserve,Septic,FALSE,FALSE,FALSE,,TRUE,,TRUE,TRUE,FALSE,,FALSE,TRUE,,FALSE,FALSE,FALSE,FALSE,AllHours,,,FALSE,FALSE,FALSE,FALSE,FALSE,https://toiletmap.gov.au/images/icons/mfa.png,"Male and Female, or Unisex (Accessible)",,Verified,-27.87974128,153.1306855
140,https://toiletmap.gov.au/toilet/140,Everdell,Mount Lindesay Highway,Veresdale,Queensland,4285,,TRUE,TRUE,FALSE,FALSE,Sporting facility,Septic,FALSE,FALSE,FALSE,,TRUE,,TRUE,TRUE,FALSE,These facilties are serving the purpose for sporting bodies only and not for general public use except on sporting days,FALSE,TRUE,,FALSE,FALSE,FALSE,FALSE,Variable,,Facilities are only open for sports training,FALSE,FALSE,FALSE,FALSE,FALSE,https://toiletmap.gov.au/images/icons/mfa.png,"Male and Female, or Unisex (Accessible)",,Verified,-27.93873083,152.9831959
141,https://toiletmap.gov.au/toilet/141,Moriarty Park,Coburg Road,Canungra,Queensland,4275,,TRUE,TRUE,FALSE,FALSE,Sporting facility,Septic,FALSE,FALSE,FALSE,,TRUE,,FALSE,FALSE,FALSE,,FALSE,TRUE,,FALSE,FALSE,FALSE,FALSE,Variable,,Facilities are only open for sports training,FALSE,FALSE,FALSE,FALSE,FALSE,https://toiletmap.gov.au/images/icons/mf.png,"Male and Female, or Unisex",,Verified,-28.01907655,153.1594418
143,https://toiletmap.gov.au/toilet/143,Merv and Ollie Musch Park,Quinzeh Creek Road,Logan Village,Queensland,4207,,TRUE,TRUE,FALSE,FALSE,Sporting facility,Septic,FALSE,FALSE,FALSE,,FALSE,,TRUE,TRUE,FALSE,,FALSE,FALSE,,FALSE,FALSE,FALSE,FALSE,Variable,,Facilities are only open for sports training,FALSE,FALSE,FALSE,FALSE,FALSE,https://toiletmap.gov.au/images/icons/mfa.png,"Male and Female, or Unisex (Accessible)",,Verified,-27.76355961,153.1171135
144,https://toiletmap.gov.au/toilet/144,Dapsang Drive Park,Dapsang Drive,Tamborine Mountain,Queensland,4272,,TRUE,TRUE,FALSE,FALSE,Park or reserve,Compost,FALSE,FALSE,FALSE,,TRUE,,TRUE,TRUE,FALSE,,FALSE,TRUE,,FALSE,FALSE,FALSE,FALSE,DaylightHours,,,FALSE,FALSE,FALSE,FALSE,FALSE,https://toiletmap.gov.au/images/icons/mfa.png,"Male and Female, or Unisex (Accessible)",,Verified,-27.92600588,153.1937362
145,https://toiletmap.gov.au/toilet/145,Lions Park,Tom Enright Drive,Beaudesert,Queensland,4285,,TRUE,TRUE,FALSE,FALSE,Park or reserve,Sewerage,FALSE,FALSE,FALSE,,TRUE,,TRUE,TRUE,FALSE,,FALSE,TRUE,,FALSE,FALSE,FALSE,FALSE,DaylightHours,,,FALSE,FALSE,FALSE,FALSE,FALSE,https://toiletmap.gov.au/images/icons/mfa.png,"Male and Female, or Unisex (Accessible)",,Verified,-27.99199863,152.9932188
146,https://toiletmap.gov.au/toilet/146,Junior Chamber Park,Brooklands Drive,Beaudesert,Queensland,4285,,TRUE,TRUE,FALSE,FALSE,Park or reserve,Sewerage,FALSE,FALSE,FALSE,,TRUE,,TRUE,TRUE,FALSE,,FALSE,FALSE,,FALSE,FALSE,FALSE,FALSE,AllHours,,,FALSE,FALSE,FALSE,FALSE,FALSE,https://toiletmap.gov.au/images/icons/mfa.png,"Male and Female, or Unisex (Accessible)",,Verified,-27.99478787,153.0183437
148,https://toiletmap.gov.au/toilet/148,Rathdowney Memorial Grounds,Mount Lindesay Highway,Rathdowney,Queensland,4287,,TRUE,TRUE,FALSE,FALSE,Sporting facility,Septic,FALSE,FALSE,FALSE,,TRUE,,TRUE,TRUE,FALSE,,FALSE,FALSE,,FALSE,FALSE,FALSE,FALSE,AllHours,,,FALSE,TRUE,FALSE,FALSE,FALSE,https://toiletmap.gov.au/images/icons/mfa.png,"Male and Female, or Unisex (Accessible)",,Verified,-28.21210377,152.8642119
149,https://toiletmap.gov.au/toilet/149,Brushwood Park,Brushwood Crescent,Cedar Grove,Queensland,4285,,TRUE,TRUE,FALSE,FALSE,Park or reserve,Septic,FALSE,FALSE,FALSE,,TRUE,,FALSE,FALSE,TRUE,,FALSE,FALSE,,FALSE,FALSE,FALSE,FALSE,DaylightHours,,,FALSE,FALSE,TRUE,FALSE,FALSE,https://toiletmap.gov.au/images/icons/mfa.png,"Male and Female, or Unisex (Accessible)",,Verified,-27.85941724,152.9787581
150,https://toiletmap.gov.au/toilet/150,Rotary Park,Cusack Lane,Jimboomba,Queensland,4280,,TRUE,TRUE,FALSE,FALSE,Park or reserve,Sewerage,FALSE,FALSE,FALSE,,TRUE,,TRUE,TRUE,FALSE,,FALSE,TRUE,,FALSE,FALSE,FALSE,FALSE,AllHours,,,FALSE,FALSE,FALSE,FALSE,FALSE,https://toiletmap.gov.au/images/icons/mfa.png,"Male and Female, or Unisex (Accessible)",,Verified,-27.83030679,153.0232491
151,https://toiletmap.gov.au/toilet/151,Mount Tamborine Botanic Gardens,Kinabalu Drive,Tamborine Mountain,Queensland,4272,,TRUE,TRUE,FALSE,FALSE,Park or reserve,Septic,FALSE,FALSE,FALSE,,TRUE,,TRUE,TRUE,FALSE,,FALSE,FALSE,,FALSE,FALSE,FALSE,FALSE,DaylightHours,,,FALSE,FALSE,FALSE,FALSE,FALSE,https://toiletmap.gov.au/images/icons/mfa.png,"Male and Female, or Unisex (Accessible)",,Verified,-27.9154251,153.2035672
153,https://toiletmap.gov.au/toilet/153,Dick Westermann Park,Mount Lindesay Highway,Beaudesert,Queensland,4285,,TRUE,TRUE,FALSE,FALSE,Park or reserve,Sewerage,FALSE,FALSE,FALSE,,TRUE,,TRUE,TRUE,FALSE,,FALSE,TRUE,,FALSE,FALSE,FALSE,FALSE,AllHours,,,FALSE,FALSE,FALSE,FALSE,FALSE,https://toiletmap.gov.au/images/icons/mfa.png,"Male and Female, or Unisex (Accessible)",,Verified,-27.96867291,152.9945477
154,https://toiletmap.gov.au/toilet/154,Argyle Road Park,Argyle Road,Greenbank,Queensland,4124,,TRUE,TRUE,FALSE,FALSE,Park or reserve,,FALSE,FALSE,FALSE,,FALSE,,TRUE,TRUE,FALSE,,FALSE,FALSE,,FALSE,FALSE,FALSE,FALSE,AllHours,,,FALSE,FALSE,FALSE,FALSE,FALSE,https://toiletmap.gov.au/images/icons/mfa.png,"Male and Female, or Unisex (Accessible)",,Verified,-27.72803112,152.9626232
162,https://toiletmap.gov.au/toilet/162,Etheridge Shire Hall,St George Street,Georgetown,Queensland,4871,,TRUE,TRUE,FALSE,FALSE,Other,Septic,FALSE,FALSE,FALSE,,TRUE,,FALSE,FALSE,FALSE,,FALSE,FALSE,,FALSE,FALSE,FALSE,FALSE,AllHours,,,FALSE,FALSE,FALSE,FALSE,FALSE,https://toiletmap.gov.au/images/icons/mf.png,"Male and Female, or Unisex",,Verified,-18.29279177,143.5496957
163,https://toiletmap.gov.au/toilet/163,Heritage Park,High Street,Georgetown,Queensland,4871,,TRUE,TRUE,FALSE,TRUE,Park or reserve,Septic,FALSE,FALSE,FALSE,,TRUE,,FALSE,FALSE,TRUE,,FALSE,TRUE,,FALSE,FALSE,FALSE,FALSE,AllHours,,,TRUE,FALSE,FALSE,FALSE,FALSE,https://toiletmap.gov.au/images/icons/mfa.png,"Male and Female, or Unisex (Accessible)",,Verified,-18.29188807,143.5477345
164,https://toiletmap.gov.au/toilet/164,Einasleigh Public Toilet,Baroota Street,Einasleigh,Queensland,4871,,TRUE,TRUE,FALSE,TRUE,Park or reserve,Septic,FALSE,FALSE,FALSE,,TRUE,,FALSE,FALSE,TRUE,,FALSE,FALSE,,FALSE,FALSE,FALSE,FALSE,AllHours,,,FALSE,FALSE,FALSE,FALSE,FALSE,https://toiletmap.gov.au/images/icons/mfa.png,"Male and Female, or Unisex (Accessible)",,Verified,-18.51193658,144.0938149
166,https://toiletmap.gov.au/toilet/166,Doug Talbot Park Ablutions,Central Road,Tom Price,Western Australia,6751,,TRUE,TRUE,FALSE,FALSE,Park or reserve,Sewerage,FALSE,FALSE,FALSE,,FALSE,,FALSE,FALSE,TRUE,,FALSE,TRUE,,FALSE,FALSE,FALSE,FALSE,Variable,Mon-Fri 10am-4pm,Monday to Sunday 24 hours,TRUE,TRUE,FALSE,TRUE,TRUE,https://toiletmap.gov.au/images/icons/mfa.png,"Male and Female, or Unisex (Accessible)",,Verified,-22.69426008,117.7946966
167,https://toiletmap.gov.au/toilet/167,Lions Park,North Road,Tom Price,Western Australia,6751,,TRUE,TRUE,FALSE,FALSE,Park or reserve,,FALSE,FALSE,FALSE,,TRUE,,TRUE,TRUE,FALSE,,FALSE,FALSE,,FALSE,FALSE,FALSE,FALSE,Variable,7am-6pm,24 Hours - Monday to Sunday,FALSE,FALSE,FALSE,TRUE,FALSE,https://toiletmap.gov.au/images/icons/mfa.png,"Male and Female, or Unisex (Accessible)",,Verified,-22.68820954,117.7922808
168,https://toiletmap.gov.au/toilet/168,Clem Thompson Memorial Oval,Jacaranda Drive,Tom Price,Western Australia,6751,,TRUE,TRUE,FALSE,FALSE,Sporting facility,,FALSE,FALSE,TRUE,,TRUE,,TRUE,TRUE,FALSE,,FALSE,TRUE,,FALSE,FALSE,FALSE,FALSE,Variable,,Facilities are only open for sporting events,FALSE,FALSE,FALSE,FALSE,FALSE,https://toiletmap.gov.au/images/icons/mfa.png,"Male and Female, or Unisex (Accessible)",,Verified,-22.6945925,117.7986638
170,https://toiletmap.gov.au/toilet/170,Tjiluna Oval,Willow Road,Tom Price,Western Australia,6751,,TRUE,TRUE,FALSE,FALSE,Sporting facility,,FALSE,FALSE,FALSE,,FALSE,,TRUE,TRUE,FALSE,,FALSE,FALSE,,FALSE,FALSE,FALSE,FALSE,Variable,,Facilities are only open during sporting fixtures,FALSE,FALSE,FALSE,FALSE,FALSE,https://toiletmap.gov.au/images/icons/mfa.png,"Male and Female, or Unisex (Accessible)",,Verified,-22.69649856,117.7964253
171,https://toiletmap.gov.au/toilet/171,Area W Oval,Tanunda Street,Tom Price,Western Australia,6751,,TRUE,TRUE,FALSE,FALSE,Sporting facility,,FALSE,FALSE,FALSE,,FALSE,,FALSE,FALSE,FALSE,,FALSE,FALSE,,FALSE,FALSE,FALSE,FALSE,Variable,,Facilities are only open during sporting fixtures,FALSE,FALSE,FALSE,FALSE,FALSE,https://toiletmap.gov.au/images/icons/mf.png,"Male and Female, or Unisex",,Verified,-22.68202608,117.7817311
172,https://toiletmap.gov.au/toilet/172,Shopping Centre,Mininer Lane,Paraburdoo,Western Australia,6754,,TRUE,TRUE,FALSE,FALSE,Shopping centre,,FALSE,FALSE,FALSE,,FALSE,,TRUE,TRUE,FALSE,,FALSE,FALSE,,FALSE,FALSE,FALSE,FALSE,AllHours,7am-6pm,,FALSE,FALSE,FALSE,FALSE,FALSE,https://toiletmap.gov.au/images/icons/mfa.png,"Male and Female, or Unisex (Accessible)",,Verified,-23.20013251,117.671459
174,https://toiletmap.gov.au/toilet/174,Peter Sutherland Oval,Fortescue Road,Paraburdoo,Western Australia,6754,,TRUE,TRUE,FALSE,FALSE,Sporting facility,,FALSE,FALSE,FALSE,,TRUE,,TRUE,TRUE,FALSE,,FALSE,FALSE,,FALSE,FALSE,FALSE,FALSE,AllHours,7am-6pm,,FALSE,FALSE,FALSE,FALSE,FALSE,https://toiletmap.gov.au/images/icons/mfa.png,"Male and Female, or Unisex (Accessible)",,Verified,-23.19729563,117.6699297
177,https://toiletmap.gov.au/toilet/177,Churchill Street,Churchill Street,Narembeen,Western Australia,6369,,TRUE,TRUE,FALSE,FALSE,,,FALSE,FALSE,FALSE,,FALSE,,TRUE,TRUE,FALSE,,FALSE,FALSE,,FALSE,FALSE,FALSE,FALSE,AllHours,,,FALSE,FALSE,FALSE,FALSE,FALSE,https://toiletmap.gov.au/images/icons/mfa.png,"Male and Female, or Unisex (Accessible)",,Verified,-32.0655575,118.3945161
178,https://toiletmap.gov.au/toilet/178,Apex Park,Currall Street,Narembeen,Western Australia,6369,,TRUE,TRUE,FALSE,FALSE,Park or reserve,,FALSE,FALSE,FALSE,,FALSE,,FALSE,FALSE,FALSE,,FALSE,FALSE,,FALSE,FALSE,FALSE,FALSE,AllHours,,,FALSE,FALSE,FALSE,FALSE,FALSE,https://toiletmap.gov.au/images/icons/mf.png,"Male and Female, or Unisex",,Verified,-32.06407649,118.39591
179,https://toiletmap.gov.au/toilet/179,Chinatown,Carnarvon Street,Bilingurr,Western Australia,6725,,FALSE,FALSE,FALSE,FALSE,Park or reserve,Sewerage,FALSE,FALSE,FALSE,,FALSE,,FALSE,FALSE,TRUE,,FALSE,FALSE,,FALSE,FALSE,FALSE,FALSE,Variable,6:30am-6:30pm,,FALSE,FALSE,FALSE,TRUE,FALSE,https://toiletmap.gov.au/images/icons/mfa.png,"Male and Female, or Unisex (Accessible)",,Verified,-17.95478523,122.2428275
182,https://toiletmap.gov.au/toilet/182,Town Beach,Robinson Street,Bilingurr,Western Australia,6725,,TRUE,TRUE,FALSE,FALSE,Park or reserve,Sewerage,FALSE,FALSE,FALSE,,TRUE,,FALSE,FALSE,TRUE,,FALSE,TRUE,,FALSE,FALSE,FALSE,FALSE,Variable,6:30am-7pm,"Toilet is open everyday of the year, on event evenings it will close at 11:00PM",FALSE,FALSE,TRUE,TRUE,TRUE,https://toiletmap.gov.au/images/icons/mfa.png,"Male and Female, or Unisex (Accessible)",,Verified,-17.97137163,122.2351442
183,https://toiletmap.gov.au/toilet/183,Cable Beach,Cable Beach Road West,Cable Beach,Western Australia,6726,,TRUE,TRUE,FALSE,FALSE,Park or reserve,Sewerage,FALSE,FALSE,FALSE,,TRUE,,FALSE,FALSE,TRUE,,FALSE,TRUE,,FALSE,FALSE,FALSE,FALSE,Variable,6:30am-7pm,Toilets are open everyday of the year,FALSE,TRUE,TRUE,TRUE,TRUE,https://toiletmap.gov.au/images/icons/mfa.png,"Male and Female, or Unisex (Accessible)",,Verified,-17.92959276,122.2107098
184,https://toiletmap.gov.au/toilet/184,Gantheaume Point,Gantheaume Point Road,Minyirr,Western Australia,6725,,FALSE,FALSE,TRUE,FALSE,Park or reserve,Septic,FALSE,FALSE,FALSE,,TRUE,,FALSE,FALSE,FALSE,,FALSE,FALSE,,FALSE,FALSE,FALSE,FALSE,AllHours,7am-7pm,,FALSE,FALSE,FALSE,TRUE,FALSE,https://toiletmap.gov.au/images/icons/mf.png,"Male and Female, or Unisex",,Verified,-17.97451939,122.1819132
185,https://toiletmap.gov.au/toilet/185,Adventure Bay Foreshore,Adventure Bay Road,Adventure Bay,Tasmania,7150,,FALSE,FALSE,FALSE,FALSE,,,FALSE,FALSE,FALSE,,TRUE,,TRUE,TRUE,FALSE,,FALSE,FALSE,,FALSE,FALSE,FALSE,FALSE,AllHours,,,FALSE,FALSE,FALSE,FALSE,FALSE,https://toiletmap.gov.au/images/icons/mfa.png,"Male and Female, or Unisex (Accessible)",,Verified,-43.36687182,147.3347753
186,https://toiletmap.gov.au/toilet/186,Alonnah Service Centre,Bruny Island Main Road,Alonnah,Tasmania,7150,,TRUE,TRUE,FALSE,TRUE,,,FALSE,FALSE,FALSE,,FALSE,,TRUE,TRUE,FALSE,,FALSE,FALSE,,FALSE,FALSE,FALSE,FALSE,AllHours,,,FALSE,FALSE,FALSE,FALSE,FALSE,https://toiletmap.gov.au/images/icons/mfa.png,"Male and Female, or Unisex (Accessible)",,Verified,-43.31649985,147.2434066
187,https://toiletmap.gov.au/toilet/187,Blackmans Bay Foreshore,Ocean Esplanade,Blackmans Bay,Tasmania,7052,,TRUE,TRUE,FALSE,FALSE,,,FALSE,FALSE,FALSE,,FALSE,,TRUE,TRUE,FALSE,,FALSE,FALSE,,FALSE,FALSE,FALSE,FALSE,DaylightHours,,,FALSE,FALSE,FALSE,FALSE,FALSE,https://toiletmap.gov.au/images/icons/mfa.png,"Male and Female, or Unisex (Accessible)",,Verified,-43.00264749,147.3247382
188,https://toiletmap.gov.au/toilet/188,Browns River,Walking Track,Kingston Beach,Tasmania,7050,,TRUE,TRUE,FALSE,FALSE,,,FALSE,FALSE,FALSE,,FALSE,,TRUE,TRUE,FALSE,,FALSE,FALSE,,FALSE,FALSE,FALSE,FALSE,AllHours,,,FALSE,FALSE,FALSE,FALSE,FALSE,https://toiletmap.gov.au/images/icons/mfa.png,"Male and Female, or Unisex (Accessible)",,Verified,-42.97649622,147.3283973
189,https://toiletmap.gov.au/toilet/189,Coningham Beach,Conningham Road,Coningham,Tasmania,7054,,TRUE,TRUE,FALSE,FALSE,,,TRUE,FALSE,FALSE,"Toilets are located on the foreshore, access via walking along Coningham Beach or down a series of steps only",FALSE,,FALSE,FALSE,FALSE,,FALSE,FALSE,,FALSE,FALSE,FALSE,FALSE,AllHours,,,FALSE,FALSE,FALSE,FALSE,FALSE,https://toiletmap.gov.au/images/icons/mf.png,"Male and Female, or Unisex",,Verified,-43.07949752,147.2854004
190,https://toiletmap.gov.au/toilet/190,Dennes Point,Nebraska Road,Dennes Point,Tasmania,7150,,TRUE,TRUE,FALSE,FALSE,Park or reserve,,FALSE,FALSE,FALSE,,TRUE,,TRUE,TRUE,FALSE,,FALSE,FALSE,,FALSE,FALSE,FALSE,FALSE,AllHours,,,FALSE,FALSE,FALSE,FALSE,FALSE,https://toiletmap.gov.au/images/icons/mfa.png,"Male and Female, or Unisex (Accessible)",,Verified,-43.06827702,147.3498219
191,https://toiletmap.gov.au/toilet/191,Dru Point Reserve,Dru Point Road,Margate,Tasmania,7054,,TRUE,TRUE,FALSE,FALSE,Park or reserve,,FALSE,FALSE,FALSE,,FALSE,,TRUE,TRUE,FALSE,,FALSE,FALSE,,FALSE,FALSE,FALSE,FALSE,DaylightHours,,,FALSE,FALSE,FALSE,FALSE,FALSE,https://toiletmap.gov.au/images/icons/mfa.png,"Male and Female, or Unisex (Accessible)",,Verified,-43.02649722,147.2773993
192,https://toiletmap.gov.au/toilet/192,Ferguson Road,Tinderbox Road East E,Tinderbox,Tasmania,7054,,TRUE,TRUE,FALSE,FALSE,,,FALSE,FALSE,FALSE,,FALSE,,FALSE,FALSE,FALSE,,FALSE,FALSE,,FALSE,FALSE,FALSE,FALSE,AllHours,,,FALSE,FALSE,FALSE,FALSE,FALSE,https://toiletmap.gov.au/images/icons/mf.png,"Male and Female, or Unisex",,Verified,-43.05749682,147.3293992
194,https://toiletmap.gov.au/toilet/194,Gordon Oval,Channel Highway,Gordon,Tasmania,7150,,FALSE,FALSE,TRUE,TRUE,Park or reserve,Septic,FALSE,FALSE,FALSE,,FALSE,,FALSE,FALSE,TRUE,,FALSE,TRUE,,FALSE,FALSE,FALSE,FALSE,AllHours,,,FALSE,FALSE,FALSE,FALSE,FALSE,https://toiletmap.gov.au/images/icons/mfa.png,"Male and Female, or Unisex (Accessible)",,Verified,-43.26149944,147.2424053
195,https://toiletmap.gov.au/toilet/195,Kettering Oval,Channel Highway,Kettering,Tasmania,7155,,TRUE,TRUE,FALSE,FALSE,Sporting facility,,FALSE,FALSE,FALSE,,TRUE,,FALSE,FALSE,FALSE,,FALSE,FALSE,,FALSE,FALSE,FALSE,FALSE,AllHours,,,FALSE,FALSE,FALSE,FALSE,FALSE,https://toiletmap.gov.au/images/icons/mf.png,"Male and Female, or Unisex",,Verified,-43.12549834,147.2474021
197,https://toiletmap.gov.au/toilet/197,Margate Oval,Channel Highway,Margate,Tasmania,7054,,TRUE,TRUE,FALSE,FALSE,Sporting facility,Sewerage,FALSE,FALSE,FALSE,,FALSE,,FALSE,FALSE,FALSE,Located at the rear of the Margate Hall,FALSE,FALSE,,FALSE,FALSE,FALSE,FALSE,AllHours,,,FALSE,FALSE,FALSE,FALSE,FALSE,https://toiletmap.gov.au/images/icons/mf.png,"Male and Female, or Unisex",,Verified,-43.02949741,147.2633996
198,https://toiletmap.gov.au/toilet/198,Middleton Foreshore,Esplanade Road,Middleton,Tasmania,7163,,TRUE,TRUE,FALSE,FALSE,,,FALSE,FALSE,FALSE,,FALSE,,FALSE,FALSE,FALSE,,FALSE,FALSE,,FALSE,FALSE,FALSE,FALSE,AllHours,,,FALSE,FALSE,FALSE,FALSE,FALSE,https://toiletmap.gov.au/images/icons/mf.png,"Male and Female, or Unisex",,Verified,-43.23263386,147.2577732
199,https://toiletmap.gov.au/toilet/199,Osborne Esplanade,Osborne Esplanade,Kingston Beach,Tasmania,7050,,TRUE,TRUE,FALSE,FALSE,,,FALSE,FALSE,FALSE,,FALSE,,TRUE,TRUE,FALSE,,FALSE,FALSE,,FALSE,FALSE,FALSE,FALSE,AllHours,,,FALSE,FALSE,FALSE,FALSE,FALSE,https://toiletmap.gov.au/images/icons/mfa.png,"Male and Female, or Unisex (Accessible)",,Verified,-42.98049628,147.3253975
201,https://toiletmap.gov.au/toilet/201,Lunawanna Hall,Lighthouse Road,Lunawanna,Tasmania,7150,Located at the rear,TRUE,TRUE,FALSE,FALSE,,,FALSE,FALSE,FALSE,,FALSE,,FALSE,FALSE,FALSE,,FALSE,FALSE,,FALSE,FALSE,FALSE,FALSE,AllHours,,,FALSE,FALSE,FALSE,FALSE,FALSE,https://toiletmap.gov.au/images/icons/mf.png,"Male and Female, or Unisex",,Verified,-43.36450039,147.2294079
203,https://toiletmap.gov.au/toilet/203,Silverwater Park,Channel Highway,Woodbridge,Tasmania,7162,,TRUE,TRUE,FALSE,FALSE,Park or reserve,,FALSE,FALSE,FALSE,,FALSE,,FALSE,FALSE,FALSE,,FALSE,FALSE,,FALSE,FALSE,FALSE,FALSE,AllHours,,,FALSE,FALSE,FALSE,FALSE,FALSE,https://toiletmap.gov.au/images/icons/mf.png,"Male and Female, or Unisex",,Verified,-43.16249872,147.2394031
204,https://toiletmap.gov.au/toilet/204,Snug Foreshore,Beach Road,Snug,Tasmania,7054,,TRUE,TRUE,FALSE,FALSE,,,FALSE,FALSE,FALSE,,FALSE,,TRUE,TRUE,FALSE,,FALSE,FALSE,,FALSE,FALSE,FALSE,FALSE,AllHours,,,FALSE,FALSE,FALSE,FALSE,FALSE,https://toiletmap.gov.au/images/icons/mfa.png,"Male and Female, or Unisex (Accessible)",,Verified,-43.06349768,147.2624004
205,https://toiletmap.gov.au/toilet/205,Taroona Beach,Niree Parade,Taroona,Tasmania,7053,,TRUE,TRUE,FALSE,FALSE,Park or reserve,Sewerage,FALSE,FALSE,FALSE,,FALSE,,TRUE,TRUE,FALSE,,FALSE,FALSE,,FALSE,FALSE,FALSE,FALSE,AllHours,,,FALSE,FALSE,FALSE,FALSE,FALSE,https://toiletmap.gov.au/images/icons/mfa.png,"Male and Female, or Unisex (Accessible)",,Verified,-42.95194387,147.3517597
206,https://toiletmap.gov.au/toilet/206,Trial Bay,Channel Highway,Kettering,Tasmania,7155,,TRUE,TRUE,FALSE,FALSE,,,FALSE,FALSE,FALSE,,FALSE,,FALSE,FALSE,FALSE,,FALSE,FALSE,,FALSE,FALSE,FALSE,FALSE,AllHours,,,FALSE,FALSE,FALSE,FALSE,FALSE,https://toiletmap.gov.au/images/icons/mf.png,"Male and Female, or Unisex",,Verified,-43.13249833,147.2524022
207,https://toiletmap.gov.au/toilet/207,Woodbridge Hall,Channel Highway,Woodbridge,Tasmania,7162,,TRUE,TRUE,FALSE,FALSE,,,FALSE,FALSE,FALSE,,FALSE,,FALSE,FALSE,FALSE,,FALSE,FALSE,,FALSE,FALSE,FALSE,FALSE,AllHours,,,FALSE,FALSE,FALSE,FALSE,FALSE,https://toiletmap.gov.au/images/icons/mf.png,"Male and Female, or Unisex",,Verified,-43.15949869,147.239403
209,https://toiletmap.gov.au/toilet/209,Sandfly Hall,Sandfly Road,Longley,Tasmania,7150,,FALSE,FALSE,TRUE,FALSE,Other,Sewerage,FALSE,FALSE,FALSE,,FALSE,,FALSE,FALSE,FALSE,,FALSE,FALSE,,FALSE,FALSE,FALSE,FALSE,AllHours,,,FALSE,FALSE,FALSE,FALSE,FALSE,https://toiletmap.gov.au/images/icons/mf.png,"Male and Female, or Unisex",,Verified,-42.9844979,147.1953998
210,https://toiletmap.gov.au/toilet/210,Wharf Area,Edward Street,Currie,Tasmania,7256,,TRUE,TRUE,FALSE,FALSE,,,FALSE,FALSE,FALSE,,FALSE,,FALSE,FALSE,FALSE,,FALSE,FALSE,,FALSE,FALSE,FALSE,FALSE,AllHours,,,FALSE,FALSE,FALSE,FALSE,FALSE,https://toiletmap.gov.au/images/icons/mf.png,"Male and Female, or Unisex",,Verified,-39.92878924,143.845731
211,https://toiletmap.gov.au/toilet/211,Recreation Ground,,Currie,Tasmania,7256,,TRUE,TRUE,FALSE,FALSE,Sporting facility,,FALSE,FALSE,FALSE,,FALSE,,TRUE,TRUE,FALSE,,FALSE,FALSE,,FALSE,FALSE,FALSE,FALSE,AllHours,,,FALSE,FALSE,FALSE,FALSE,FALSE,https://toiletmap.gov.au/images/icons/mfa.png,"Male and Female, or Unisex (Accessible)",,Verified,-39.93338501,143.8487447
212,https://toiletmap.gov.au/toilet/212,Huxley Street,Huxley Street,Currie,Tasmania,7256,,TRUE,TRUE,FALSE,FALSE,Other,Sewerage,FALSE,FALSE,FALSE,,FALSE,,TRUE,TRUE,FALSE,,FALSE,FALSE,,FALSE,FALSE,FALSE,FALSE,AllHours,,,FALSE,FALSE,FALSE,TRUE,FALSE,https://toiletmap.gov.au/images/icons/mfa.png,"Male and Female, or Unisex (Accessible)",,Verified,-39.92967156,143.8505652
213,https://toiletmap.gov.au/toilet/213,Naracoopa,Fraser Road,Naracoopa,Tasmania,7256,,TRUE,TRUE,FALSE,FALSE,,,FALSE,FALSE,FALSE,,FALSE,,FALSE,FALSE,FALSE,,FALSE,FALSE,,FALSE,FALSE,FALSE,FALSE,AllHours,,,FALSE,FALSE,FALSE,FALSE,FALSE,https://toiletmap.gov.au/images/icons/mf.png,"Male and Female, or Unisex",,Verified,-39.91659952,144.1168393
214,https://toiletmap.gov.au/toilet/214,Pennys Lagoon,,Yambacoona,Tasmania,7256,,TRUE,TRUE,FALSE,FALSE,Park or reserve,Compost,FALSE,FALSE,FALSE,,FALSE,,FALSE,FALSE,TRUE,,FALSE,FALSE,,FALSE,FALSE,FALSE,FALSE,AllHours,,,FALSE,FALSE,FALSE,FALSE,FALSE,https://toiletmap.gov.au/images/icons/mfa.png,"Male and Female, or Unisex (Accessible)",,Verified,-39.65581764,144.0802126
216,https://toiletmap.gov.au/toilet/216,Esplanade,Esplanade,Strahan,Tasmania,7468,Toilets are located in the carpark,TRUE,TRUE,FALSE,FALSE,Car park,Sewerage,FALSE,FALSE,FALSE,,TRUE,,TRUE,TRUE,FALSE,Hots showers,FALSE,TRUE,,FALSE,FALSE,FALSE,FALSE,AllHours,,,FALSE,TRUE,FALSE,FALSE,TRUE,https://toiletmap.gov.au/images/icons/mfa.png,"Male and Female, or Unisex (Accessible)",,Verified,-42.15515834,145.3259068
219,https://toiletmap.gov.au/toilet/219,Sticht Street,Sticht Street,Queenstown,Tasmania,7467,,TRUE,TRUE,FALSE,FALSE,Park or reserve,Sewerage,FALSE,FALSE,FALSE,,FALSE,,FALSE,FALSE,TRUE,,FALSE,FALSE,,FALSE,FALSE,FALSE,FALSE,AllHours,,,FALSE,FALSE,FALSE,FALSE,FALSE,https://toiletmap.gov.au/images/icons/mfa.png,"Male and Female, or Unisex (Accessible)",,Verified,-42.08079925,145.5559733
220,https://toiletmap.gov.au/toilet/220,Victoria Street,Victoria Street,Tullah,Tasmania,7321,,TRUE,TRUE,FALSE,FALSE,,,FALSE,FALSE,FALSE,,FALSE,,FALSE,FALSE,FALSE,,FALSE,FALSE,,FALSE,FALSE,FALSE,FALSE,DaylightHours,,,FALSE,FALSE,FALSE,FALSE,FALSE,https://toiletmap.gov.au/images/icons/mf.png,"Male and Female, or Unisex",,Verified,-41.73807827,145.617007
221,https://toiletmap.gov.au/toilet/221,Murchison Highway,Murchison Highway,Tullah,Tasmania,7321,"Next to the Wee Georgie Wood Station, 20 meters from the highway",TRUE,TRUE,FALSE,FALSE,,,FALSE,FALSE,FALSE,,FALSE,,FALSE,FALSE,FALSE,,FALSE,FALSE,,FALSE,FALSE,FALSE,FALSE,AllHours,,,FALSE,FALSE,FALSE,FALSE,FALSE,https://toiletmap.gov.au/images/icons/mf.png,"Male and Female, or Unisex",,Verified,-41.73030161,145.6236811
222,https://toiletmap.gov.au/toilet/222,Agnes St Rosebery,Agnes Street,Rosebery,Tasmania,7470,,TRUE,TRUE,FALSE,FALSE,Car park,Sewerage,FALSE,FALSE,FALSE,,FALSE,,FALSE,FALSE,TRUE,,FALSE,FALSE,,FALSE,FALSE,FALSE,FALSE,DaylightHours,,,FALSE,FALSE,FALSE,FALSE,FALSE,https://toiletmap.gov.au/images/icons/mfa.png,"Male and Female, or Unisex (Accessible)",,Verified,-41.779581,145.539552
223,https://toiletmap.gov.au/toilet/223,Howards Park Zeehan,121 MAIN ST,Zeehan,Tasmania,7469,,FALSE,FALSE,FALSE,FALSE,Park or reserve,Sewerage,FALSE,FALSE,FALSE,,FALSE,,FALSE,FALSE,TRUE,,FALSE,FALSE,,FALSE,FALSE,FALSE,FALSE,Variable,7am-6pm,,FALSE,FALSE,FALSE,FALSE,FALSE,https://toiletmap.gov.au/images/icons/mfa.png,"Male and Female, or Unisex (Accessible)",,Verified,-41.8832,145.33617
226,https://toiletmap.gov.au/toilet/226,Purkiss Reserve,Ambrose Street,Tennant Creek,Northern Territory,860,,TRUE,TRUE,FALSE,FALSE,Park or reserve,,FALSE,FALSE,FALSE,,FALSE,,TRUE,TRUE,FALSE,,FALSE,FALSE,,FALSE,FALSE,FALSE,FALSE,Variable,6:30am-7pm,,FALSE,FALSE,FALSE,FALSE,FALSE,https://toiletmap.gov.au/images/icons/mfa.png,"Male and Female, or Unisex (Accessible)",,Verified,-19.64425881,134.1930998
227,https://toiletmap.gov.au/toilet/227,Swimming Pool,Ambrose Street,Tennant Creek,Northern Territory,860,,TRUE,TRUE,FALSE,FALSE,Sporting facility,Sewerage,FALSE,FALSE,FALSE,,FALSE,,TRUE,TRUE,FALSE,,FALSE,FALSE,,FALSE,FALSE,FALSE,FALSE,Variable,Sep-Apr 10am-6pm,Please note toilet is only open to users of the sports facilities,FALSE,FALSE,FALSE,FALSE,FALSE,https://toiletmap.gov.au/images/icons/mfa.png,"Male and Female, or Unisex (Accessible)",,Verified,-19.64513876,134.1940042
229,https://toiletmap.gov.au/toilet/229,Public Library,Peko Road,Tennant Creek,Northern Territory,860,,TRUE,TRUE,FALSE,FALSE,Other,Sewerage,FALSE,FALSE,FALSE,,FALSE,,TRUE,TRUE,FALSE,,FALSE,FALSE,,FALSE,FALSE,FALSE,FALSE,Variable,Mon-Fri 10am-6pm,,FALSE,FALSE,FALSE,FALSE,FALSE,https://toiletmap.gov.au/images/icons/mfa.png,"Male and Female, or Unisex (Accessible)",,Verified,-19.64667868,134.1960574
231,https://toiletmap.gov.au/toilet/231,Mary Ann Dam,Stuart Highway,Tennant Creek,Northern Territory,860,,TRUE,TRUE,FALSE,FALSE,Park or reserve,Sewerage,FALSE,FALSE,FALSE,,FALSE,,TRUE,TRUE,FALSE,,FALSE,FALSE,,FALSE,FALSE,FALSE,FALSE,AllHours,,,FALSE,FALSE,FALSE,FALSE,FALSE,https://toiletmap.gov.au/images/icons/mfa.png,"Male and Female, or Unisex (Accessible)",,Verified,-19.6063735,134.1996433
232,https://toiletmap.gov.au/toilet/232,Endeavour Square,Chesterfield Circuit,Nhulunbuy,Northern Territory,880,,TRUE,TRUE,FALSE,FALSE,Other,Sewerage,FALSE,FALSE,FALSE,,FALSE,,FALSE,FALSE,TRUE,,FALSE,FALSE,,FALSE,FALSE,FALSE,FALSE,AllHours,Mon-Fri 7am-6pm; Sat 7am-4pm,,FALSE,FALSE,FALSE,FALSE,FALSE,https://toiletmap.gov.au/images/icons/mfa.png,"Male and Female, or Unisex (Accessible)",,Verified,-12.18407951,136.7864346
233,https://toiletmap.gov.au/toilet/233,Swim Pool,Mirimina Street,Nhulunbuy,Northern Territory,880,,TRUE,TRUE,FALSE,FALSE,Sporting facility,,FALSE,FALSE,FALSE,,FALSE,,FALSE,FALSE,FALSE,,FALSE,FALSE,,FALSE,FALSE,FALSE,FALSE,Variable,Wed-Mon 9am-5pm,,FALSE,FALSE,FALSE,FALSE,FALSE,https://toiletmap.gov.au/images/icons/mf.png,"Male and Female, or Unisex",,Verified,-12.18451239,136.787983
234,https://toiletmap.gov.au/toilet/234,Karatta Road,Karatta Road,Robe,South Australia,5276,,TRUE,TRUE,FALSE,FALSE,,,FALSE,FALSE,FALSE,,FALSE,,FALSE,FALSE,FALSE,,FALSE,FALSE,,FALSE,FALSE,FALSE,FALSE,AllHours,,,FALSE,FALSE,FALSE,FALSE,FALSE,https://toiletmap.gov.au/images/icons/mf.png,"Male and Female, or Unisex",,Verified,-37.16119467,139.7502435
236,https://toiletmap.gov.au/toilet/236,Lakeside Terrace,Lakeside Terrace,Robe,South Australia,5276,,TRUE,TRUE,FALSE,FALSE,Park or reserve,Septic,FALSE,FALSE,FALSE,,FALSE,,FALSE,FALSE,TRUE,,FALSE,FALSE,,FALSE,FALSE,FALSE,FALSE,AllHours,,,FALSE,FALSE,FALSE,FALSE,FALSE,https://toiletmap.gov.au/images/icons/mfa.png,"Male and Female, or Unisex (Accessible)",Shower available.,Verified,-37.16993727,139.7689301
237,https://toiletmap.gov.au/toilet/237,Esplanade,Esplanade,Robe,South Australia,5276,,TRUE,TRUE,FALSE,FALSE,Park or reserve,Sewerage,FALSE,FALSE,FALSE,,FALSE,,FALSE,FALSE,FALSE,,FALSE,FALSE,,FALSE,FALSE,FALSE,FALSE,AllHours,,,FALSE,FALSE,FALSE,FALSE,FALSE,https://toiletmap.gov.au/images/icons/mf.png,"Male and Female, or Unisex",,Verified,-37.16469457,139.7819826
238,https://toiletmap.gov.au/toilet/238,Lipson Park,Lipson Park,Robe,South Australia,5276,,FALSE,FALSE,TRUE,FALSE,Park or reserve,Septic,FALSE,FALSE,FALSE,,FALSE,,FALSE,FALSE,FALSE,,FALSE,FALSE,,FALSE,FALSE,FALSE,FALSE,AllHours,,,FALSE,FALSE,FALSE,FALSE,FALSE,https://toiletmap.gov.au/images/icons/mf.png,"Male and Female, or Unisex",,Verified,-37.16361596,139.7515847
240,https://toiletmap.gov.au/toilet/240,Mundy Terrace,Mundy Terrace,Robe,South Australia,5276,,TRUE,TRUE,FALSE,FALSE,Park or reserve,Septic,FALSE,FALSE,FALSE,,FALSE,,FALSE,FALSE,TRUE,,FALSE,FALSE,,FALSE,FALSE,FALSE,FALSE,AllHours,,,TRUE,TRUE,FALSE,FALSE,FALSE,https://toiletmap.gov.au/images/icons/mfa.png,"Male and Female, or Unisex (Accessible)",,Verified,-37.16266636,139.7571868
242,https://toiletmap.gov.au/toilet/242,Railway Terrace,Railway Terrace,Karoonda,South Australia,5307,,TRUE,TRUE,FALSE,FALSE,,,FALSE,FALSE,FALSE,,FALSE,,TRUE,TRUE,FALSE,,FALSE,FALSE,,FALSE,FALSE,FALSE,FALSE,AllHours,,,FALSE,FALSE,FALSE,FALSE,FALSE,https://toiletmap.gov.au/images/icons/mfa.png,"Male and Female, or Unisex (Accessible)",,Verified,-35.09470535,139.8966995
243,https://toiletmap.gov.au/toilet/243,Apex Park,Railway Terrace,Karoonda,South Australia,5307,,TRUE,TRUE,FALSE,FALSE,Park or reserve,Sewerage,FALSE,FALSE,FALSE,,FALSE,,FALSE,FALSE,TRUE,,FALSE,FALSE,,FALSE,FALSE,FALSE,FALSE,AllHours,,,FALSE,FALSE,FALSE,FALSE,FALSE,https://toiletmap.gov.au/images/icons/mfa.png,"Male and Female, or Unisex (Accessible)",,Verified,-35.096022,139.8901375
244,https://toiletmap.gov.au/toilet/244,Stephen Terrace,Stephen Terrace,Gilberton,South Australia,5081,,TRUE,TRUE,FALSE,FALSE,Other,Sewerage,FALSE,FALSE,FALSE,,FALSE,,FALSE,FALSE,FALSE,,FALSE,FALSE,,FALSE,FALSE,FALSE,FALSE,Variable,Mon-Fri 8:30am-5pm,,FALSE,FALSE,FALSE,FALSE,FALSE,https://toiletmap.gov.au/images/icons/mf.png,"Male and Female, or Unisex",,Verified,-34.89792163,138.6146909
245,https://toiletmap.gov.au/toilet/245,Smith Street,Smith Street,Walkerville,South Australia,5081,,TRUE,TRUE,FALSE,FALSE,Park or reserve,Sewerage,FALSE,FALSE,FALSE,,FALSE,,TRUE,TRUE,FALSE,,FALSE,FALSE,,FALSE,FALSE,FALSE,FALSE,AllHours,,,FALSE,FALSE,FALSE,FALSE,FALSE,https://toiletmap.gov.au/images/icons/mfa.png,"Male and Female, or Unisex (Accessible)",,Verified,-34.89435934,138.6152748
246,https://toiletmap.gov.au/toilet/246,Willow Bend Reserve,Ascot Avenue,Vale Park,South Australia,5081,,TRUE,TRUE,FALSE,FALSE,Park or reserve,Sewerage,FALSE,FALSE,FALSE,,TRUE,,FALSE,FALSE,TRUE,,FALSE,TRUE,,FALSE,FALSE,FALSE,FALSE,DaylightHours,,,FALSE,FALSE,FALSE,TRUE,FALSE,https://toiletmap.gov.au/images/icons/mfa.png,"Male and Female, or Unisex (Accessible)",,Verified,-34.88862927,138.6282501
247,https://toiletmap.gov.au/toilet/247,Beach Terrace,Beach Terrace,Elliston,South Australia,5670,,TRUE,TRUE,FALSE,FALSE,,,FALSE,FALSE,FALSE,,TRUE,,FALSE,FALSE,FALSE,,FALSE,FALSE,,FALSE,FALSE,FALSE,FALSE,AllHours,,,FALSE,TRUE,FALSE,TRUE,TRUE,https://toiletmap.gov.au/images/icons/mf.png,"Male and Female, or Unisex",,Verified,-33.64561544,134.8854395
249,https://toiletmap.gov.au/toilet/249,Mallee Highway,Mallee Highway,Sherlock,South Australia,5301,,TRUE,TRUE,FALSE,FALSE,,,FALSE,FALSE,FALSE,,FALSE,,FALSE,FALSE,FALSE,,FALSE,FALSE,,FALSE,FALSE,FALSE,FALSE,AllHours,,,FALSE,FALSE,FALSE,FALSE,FALSE,https://toiletmap.gov.au/images/icons/mf.png,"Male and Female, or Unisex",,Verified,-35.31925277,139.8053947
250,https://toiletmap.gov.au/toilet/250,Port Kenny,Flinders Highway,Port Kenny,South Australia,5671,,TRUE,TRUE,FALSE,FALSE,Car park,Sewerage,FALSE,FALSE,FALSE,,FALSE,,FALSE,FALSE,FALSE,,FALSE,FALSE,,FALSE,FALSE,FALSE,FALSE,AllHours,,,FALSE,FALSE,FALSE,FALSE,FALSE,https://toiletmap.gov.au/images/icons/mf.png,"Male and Female, or Unisex",,Verified,-33.16752699,134.6853934
251,https://toiletmap.gov.au/toilet/251,Venus Bay,Bay Road,Venus Bay,South Australia,5607,Toilet is located at the jetty car park,TRUE,TRUE,FALSE,FALSE,,,FALSE,FALSE,FALSE,,TRUE,,FALSE,FALSE,FALSE,,FALSE,FALSE,,FALSE,FALSE,FALSE,FALSE,AllHours,,,FALSE,FALSE,FALSE,FALSE,FALSE,https://toiletmap.gov.au/images/icons/mf.png,"Male and Female, or Unisex",,Verified,-33.23112666,134.6725097
252,https://toiletmap.gov.au/toilet/252,Lloyd Street,Lloyd Street,Dimboola,Victoria,3414,,TRUE,TRUE,FALSE,FALSE,,,FALSE,FALSE,FALSE,,FALSE,,TRUE,TRUE,FALSE,,FALSE,FALSE,,FALSE,FALSE,FALSE,FALSE,AllHours,,,FALSE,FALSE,FALSE,FALSE,FALSE,https://toiletmap.gov.au/images/icons/mfa.png,"Male and Female, or Unisex (Accessible)",,Verified,-36.45500737,142.0265802
253,https://toiletmap.gov.au/toilet/253,Lloyd Street,Lloyd Street,Dimboola,Victoria,3414,,TRUE,TRUE,FALSE,FALSE,Bus station,Sewerage,FALSE,FALSE,FALSE,,FALSE,,FALSE,FALSE,TRUE,,FALSE,FALSE,,FALSE,FALSE,FALSE,FALSE,AllHours,,,FALSE,FALSE,FALSE,FALSE,FALSE,https://toiletmap.gov.au/images/icons/mfa.png,"Male and Female, or Unisex (Accessible)",,Verified,-36.45412096,142.0263738
254,https://toiletmap.gov.au/toilet/254,Charles Street,Charles Street,Jeparit,Victoria,3423,,TRUE,TRUE,FALSE,FALSE,,,FALSE,FALSE,FALSE,,FALSE,,TRUE,TRUE,FALSE,,FALSE,FALSE,,FALSE,FALSE,FALSE,FALSE,AllHours,,,FALSE,FALSE,FALSE,FALSE,FALSE,https://toiletmap.gov.au/images/icons/mfa.png,"Male and Female, or Unisex (Accessible)",,Verified,-36.14249388,141.9882419
255,https://toiletmap.gov.au/toilet/255,Roy Street,Roy Street,Jeparit,Victoria,3423,,TRUE,TRUE,FALSE,FALSE,,,FALSE,FALSE,FALSE,,FALSE,,FALSE,FALSE,FALSE,,FALSE,FALSE,,FALSE,FALSE,FALSE,FALSE,AllHours,,,FALSE,FALSE,FALSE,FALSE,FALSE,https://toiletmap.gov.au/images/icons/mf.png,"Male and Female, or Unisex",,Verified,-36.1430491,141.9873694
256,https://toiletmap.gov.au/toilet/256,Western Highway,Western Highway,Nhill,Victoria,3418,,TRUE,TRUE,FALSE,FALSE,,,FALSE,FALSE,FALSE,,FALSE,,TRUE,TRUE,FALSE,,FALSE,FALSE,,FALSE,FALSE,FALSE,FALSE,AllHours,,,FALSE,FALSE,FALSE,FALSE,FALSE,https://toiletmap.gov.au/images/icons/mfa.png,"Male and Female, or Unisex (Accessible)",,Verified,-36.33426504,141.6489602
257,https://toiletmap.gov.au/toilet/257,Western Highway,Western Highway,Nhill,Victoria,3418,,TRUE,TRUE,FALSE,FALSE,,,FALSE,FALSE,FALSE,,FALSE,,TRUE,TRUE,FALSE,,FALSE,FALSE,,FALSE,FALSE,FALSE,FALSE,AllHours,,,FALSE,FALSE,FALSE,FALSE,FALSE,https://toiletmap.gov.au/images/icons/mfa.png,"Male and Female, or Unisex (Accessible)",,Verified,-36.33739237,141.6464373
258,https://toiletmap.gov.au/toilet/258,King Street,King Street,Rainbow,Victoria,3424,,TRUE,TRUE,FALSE,FALSE,Other,Sewerage,FALSE,FALSE,FALSE,,FALSE,,FALSE,FALSE,TRUE,,FALSE,FALSE,,FALSE,FALSE,FALSE,FALSE,AllHours,,,FALSE,FALSE,FALSE,FALSE,FALSE,https://toiletmap.gov.au/images/icons/mfa.png,"Male and Female, or Unisex (Accessible)",,Verified,-35.89787629,141.9944402
259,https://toiletmap.gov.au/toilet/259,North Park Club Rooms,Newington Road,Stawell,Victoria,3380,,TRUE,TRUE,FALSE,FALSE,Sporting facility,,FALSE,FALSE,TRUE,,FALSE,,FALSE,FALSE,FALSE,,FALSE,FALSE,,FALSE,FALSE,FALSE,FALSE,Variable,,Locked facility - request required to have facility open through the Northern Grampians Shire Council.  Group/user requesting toilets to be opened are to pay for the cleaning costs.,FALSE,FALSE,FALSE,TRUE,FALSE,https://toiletmap.gov.au/images/icons/mf.png,"Male and Female, or Unisex",,Verified,-37.04931775,142.7746777
260,https://toiletmap.gov.au/toilet/260,North Park - Centre,Ellen Street,Stawell,Victoria,3380,,TRUE,TRUE,FALSE,FALSE,Park or reserve,,FALSE,FALSE,FALSE,,FALSE,,TRUE,TRUE,FALSE,,FALSE,FALSE,,FALSE,FALSE,FALSE,FALSE,DaylightHours,,,FALSE,FALSE,FALSE,FALSE,FALSE,https://toiletmap.gov.au/images/icons/mfa.png,"Male and Female, or Unisex (Accessible)",,Verified,-37.05056201,142.7746582
261,https://toiletmap.gov.au/toilet/261,Scallan Street Car Park,Scallan Street,Stawell,Victoria,3380,,TRUE,TRUE,FALSE,FALSE,Car park,,FALSE,FALSE,FALSE,,FALSE,,TRUE,TRUE,FALSE,,FALSE,FALSE,,FALSE,FALSE,FALSE,FALSE,DaylightHours,,,TRUE,FALSE,FALSE,TRUE,TRUE,https://toiletmap.gov.au/images/icons/mfa.png,"Male and Female, or Unisex (Accessible)",,Verified,-37.05464467,142.7812683
262,https://toiletmap.gov.au/toilet/262,Mall Entry,Baylis Street,Stawell,Victoria,3380,,TRUE,TRUE,FALSE,FALSE,,,FALSE,FALSE,FALSE,,FALSE,,TRUE,TRUE,FALSE,,FALSE,FALSE,,FALSE,FALSE,FALSE,FALSE,DaylightHours,Mon-Sat 8am-5pm,,TRUE,FALSE,FALSE,TRUE,TRUE,https://toiletmap.gov.au/images/icons/mfa.png,"Male and Female, or Unisex (Accessible)",,Verified,-37.05658883,142.7808795
263,https://toiletmap.gov.au/toilet/263,Cato Park,Florence Street,Stawell,Victoria,3380,,TRUE,TRUE,FALSE,FALSE,Park or reserve,,FALSE,FALSE,FALSE,,FALSE,,TRUE,TRUE,FALSE,,FALSE,FALSE,,FALSE,FALSE,FALSE,FALSE,DaylightHours,,,FALSE,FALSE,FALSE,TRUE,TRUE,https://toiletmap.gov.au/images/icons/mfa.png,"Male and Female, or Unisex (Accessible)",,Verified,-37.05925236,142.7783133
264,https://toiletmap.gov.au/toilet/264,Stawell Library,Sloane Street,Stawell,Victoria,3380,,TRUE,TRUE,FALSE,FALSE,,,FALSE,FALSE,FALSE,,FALSE,,TRUE,TRUE,FALSE,,FALSE,FALSE,,FALSE,FALSE,FALSE,FALSE,Variable,Tue-Fri 10am-5:30pm; Sat 10am-12pm; Sun 2pm-5pm,,FALSE,FALSE,FALSE,FALSE,FALSE,https://toiletmap.gov.au/images/icons/mfa.png,"Male and Female, or Unisex (Accessible)",,Verified,-37.05553896,142.7833097
265,https://toiletmap.gov.au/toilet/265,Central Park,Victoria Street,Stawell,Victoria,3380,,TRUE,TRUE,FALSE,FALSE,Park or reserve,,FALSE,FALSE,FALSE,,FALSE,,TRUE,TRUE,FALSE,,FALSE,FALSE,,FALSE,FALSE,FALSE,FALSE,DaylightHours,,,FALSE,FALSE,FALSE,TRUE,TRUE,https://toiletmap.gov.au/images/icons/mfa.png,"Male and Female, or Unisex (Accessible)",,Verified,-37.05908603,142.7752742